{"type": "FeatureCollection", "features": [{"type": "Feature", "geometry": {"type": "Point", "coordinates": [-0.198849, 51.664191]}, "properties": {"Polling place - name": "Hadley Memorial Hall", "Polling place - address": "29 Hadley Highstone, Barnet EN5 4PU", "Ward": "High Barnet", "Polling district": "CAA"}}, {"type": "Feature", "geometry": {"type": "Point", "coordinates": [-0.185439, 51.653104]}, "properties": {"Polling place - name": "St Marks Church Hall", "Polling place - address": "Potters Road, New Barnet EN5 5HY", "Ward": "High Barnet", "Polling district": "CAB"}}, {"type": "Feature", "geometry": {"type": "Point", "coordinates": [-0.22306, 51.65037]}, "properties": {"Polling place - name": "Arkley Club", "Polling place - address": "64 Barnet Road, Arkley EN5 3EY", "Ward": "High Barnet", "Polling district": "CAC"}}, {"type": "Feature", "geometry": {"type": "Point", "coordinates": [-0.213333, 51.65586]}, "properties": {"Polling place - name": "Q.E Boy\u2019s School", "Polling place - address": "Queen\u2019s Road, Barnet EN5 4DQ", "Ward": "High Barnet", "Polling district": "CAD"}}, {"type": "Feature", "geometry": {"type": "Point", "coordinates": [-0.204748, 51.656152]}, "properties": {"Polling place - name": "Chipping Barnet Library", "Polling place - address": " 3 Stapylton Road, Barnet EN5 4QT", "Ward": "High Barnet", "Polling district": "CAE"}}, {"type": "Feature", "geometry": {"type": "Point", "coordinates": [-0.162136, 51.653433]}, "properties": {"Polling place - name": "New Bevan Community Church ", "Polling place - address": "Grove Road, Barnet EN4 9DF", "Ward": "East Barnet", "Polling district": "CBA"}}, {"type": "Feature", "geometry": {"type": "Point", "coordinates": [-0.152808, 51.650311]}, "properties": {"Polling place - name": "Trent (CE) Primary School", "Polling place - address": "Church Way, off Chalk Lane, Cockfosters EN4 9JH", "Ward": "East Barnet", "Polling district": "CBB"}}, {"type": "Feature", "geometry": {"type": "Point", "coordinates": [-0.149022, 51.643192]}, "properties": {"Polling place - name": "Barnet Scout Hall", "Polling place - address": "off Vernon Crescent, East Barnet EN4 8QG", "Ward": "East Barnet", "Polling district": "CBC"}}, {"type": "Feature", "geometry": {"type": "Point", "coordinates": [-0.162447, 51.642522]}, "properties": {"Polling place - name": "Brookside Methodist Church", "Polling place - address": "2 Cat Hill, Barnet EN4 8JB", "Ward": "East Barnet", "Polling district": "CBD"}}, {"type": "Feature", "geometry": {"type": "Point", "coordinates": [-0.170475, 51.650614]}, "properties": {"Polling place - name": "New Barnet Community Centre ", "Polling place - address": "48/50 Victoria Road, New Barnet EN4 9PF", "Ward": "East Barnet", "Polling district": "CBE"}}, {"type": "Feature", "geometry": {"type": "Point", "coordinates": [-0.146307, 51.636764]}, "properties": {"Polling place - name": "Monkfrith Primary School", "Polling place - address": "Knoll Drive, Southgate N14 5NG", "Ward": "Brunswick Park", "Polling district": "CCA"}}, {"type": "Feature", "geometry": {"type": "Point", "coordinates": [-0.134311, 51.634335]}, "properties": {"Polling place - name": "Osidge Primary School", "Polling place - address": "Chase Side, Southgate N14 5HD", "Ward": "Brunswick Park", "Polling district": "CCB"}}, {"type": "Feature", "geometry": {"type": "Point", "coordinates": [-0.148475, 51.627878]}, "properties": {"Polling place - name": "Portable Office (Brunswick Park Road)", "Polling place - address": "Brunswick Park Road, Southgate N11 1HA", "Ward": "Brunswick Park", "Polling district": "CCC"}}, {"type": "Feature", "geometry": {"type": "Point", "coordinates": [-0.147558, 51.630876]}, "properties": {"Polling place - name": "CCI London Church Hall", "Polling place - address": "Osidge Lane, Southgate N14 5DU", "Ward": "Brunswick Park", "Polling district": "CCD"}}, {"type": "Feature", "geometry": {"type": "Point", "coordinates": [-0.152384, 51.614883]}, "properties": {"Polling place - name": "Scout and Guide Hall", "Polling place - address": "Stanford Road, Friern Barnet N11 3HX", "Ward": "Coppetts", "Polling district": "CDA"}}, {"type": "Feature", "geometry": {"type": "Point", "coordinates": [-0.145085, 51.61287]}, "properties": {"Polling place - name": "Portable Office (Junction of Balmoral Avenue/ Regal Drive)", "Polling place - address": "Junction of Balmoral Avenue/ Regal Drive, Friern Barnet N11 3QA", "Ward": "Coppetts", "Polling district": "CDB"}}, {"type": "Feature", "geometry": {"type": "Point", "coordinates": [-0.149198, 51.601596]}, "properties": {"Polling place - name": "St Peter Le Poer Church Hall", "Polling place - address": "Albion Avenue, London N10 1AE", "Ward": "Coppetts", "Polling district": "CDC"}}, {"type": "Feature", "geometry": {"type": "Point", "coordinates": [-0.142754, 51.607348]}, "properties": {"Polling place - name": "Freehold Community Centre ", "Polling place - address": "9 Alexandra Road, Muswell Hill N10 2EY", "Ward": "Coppetts", "Polling district": "CDE"}}, {"type": "Feature", "geometry": {"type": "Point", "coordinates": [-0.183026, 51.647275]}, "properties": {"Polling place - name": "Barnet Lawn Tennis Club", "Polling place - address": "Gloucester Road, New Barnet EN5 1RS", "Ward": "Oakleigh ", "Polling district": "CEA"}}, {"type": "Feature", "geometry": {"type": "Point", "coordinates": [-0.175399, 51.648587]}, "properties": {"Polling place - name": "Lyonsdown Main Hall", "Polling place - address": "3 Lyonsdown Road, New Barnet EN5 1JB", "Ward": "Oakleigh", "Polling district": "CEB"}}, {"type": "Feature", "geometry": {"type": "Point", "coordinates": [-0.173333, 51.631316]}, "properties": {"Polling place - name": "St Mary Magdelen Parish Centre", "Polling place - address": "6 Athenaeum Road, Whetstone N20 9AE", "Ward": "Oakleigh", "Polling district": "CEC"}}, {"type": "Feature", "geometry": {"type": "Point", "coordinates": [-0.159854, 51.624478]}, "properties": {"Polling place - name": "Manor Drive Methodist Church Hall", "Polling place - address": " Manor Drive, Whetstone N20 0DZ", "Ward": "Oakleigh", "Polling district": "CED"}}, {"type": "Feature", "geometry": {"type": "Point", "coordinates": [-0.196421, 51.629911]}, "properties": {"Polling place - name": "St Andrew\u2019s JMI School", "Polling place - address": "The Green, Totteridge N20 8NX", "Ward": "Totteridge ", "Polling district": "CFA"}}, {"type": "Feature", "geometry": {"type": "Point", "coordinates": [-0.181626, 51.632776]}, "properties": {"Polling place - name": "Totteridge Tennis Club", "Polling place - address": "Great Bushey Drive, Totteridge N20 8QL", "Ward": "Totteridge", "Polling district": "CFB"}}, {"type": "Feature", "geometry": {"type": "Point", "coordinates": [-0.173947, 51.627171]}, "properties": {"Polling place - name": "Alma Primary School", "Polling place - address": "Friern Barnet Lane, Whetstone N20 0LP", "Ward": "Totteridge", "Polling district": "CFC"}}, {"type": "Feature", "geometry": {"type": "Point", "coordinates": [-0.181615, 51.622219]}, "properties": {"Polling place - name": "Finchley Catholic High School", "Polling place - address": "Woodside Lane, Finchley N12 8TA", "Ward": "Totteridge", "Polling district": "CFD"}}, {"type": "Feature", "geometry": {"type": "Point", "coordinates": [-0.191012, 51.619873]}, "properties": {"Polling place - name": "Woodside Park Social Club", "Polling place - address": "Southover, Finchley N12 7JG", "Ward": "Totteridge", "Polling district": "CFE"}}, {"type": "Feature", "geometry": {"type": "Point", "coordinates": [-0.202352, 51.64581]}, "properties": {"Polling place - name": "Hope Corner Community Centre", "Polling place - address": "185 Mays Lane, Barnet EN5 2DY", "Ward": "Underhill ", "Polling district": "CGA"}}, {"type": "Feature", "geometry": {"type": "Point", "coordinates": [-0.195836, 51.647931]}, "properties": {"Polling place - name": "Underhill Baptist Church Hall", "Polling place - address": "Elton Avenue, Barnet EN5 2EA", "Ward": "Underhill", "Polling district": "CGB"}}, {"type": "Feature", "geometry": {"type": "Point", "coordinates": [-0.216174, 51.648665]}, "properties": {"Polling place - name": "St Stephens Church Hall", "Polling place - address": "1 Spring Close, Bells Hill, Barnet EN5 2UR", "Ward": "Underhill", "Polling district": "CGC"}}, {"type": "Feature", "geometry": {"type": "Point", "coordinates": [-0.243005, 51.642631]}, "properties": {"Polling place - name": "The Pavilion", "Polling place - address": "Brickfield Lane, Barnet EN5 3LD", "Ward": "Underhill", "Polling district": "CGD"}}, {"type": "Feature", "geometry": {"type": "Point", "coordinates": [-0.188466, 51.641352]}, "properties": {"Polling place - name": "Grasvenor Avenue School ", "Polling place - address": "Grasvenor Avenue, Barnet EN5 2BY", "Ward": "Underhill", "Polling district": "CGE"}}, {"type": "Feature", "geometry": {"type": "Point", "coordinates": [-0.174598, 51.618522]}, "properties": {"Polling place - name": "North Finchley Library", "Polling place - address": "Ravensdale Avenue, North Finchley N12 9HP", "Ward": "Woodhouse", "Polling district": "FHA"}}, {"type": "Feature", "geometry": {"type": "Point", "coordinates": [-0.172538, 51.614794]}, "properties": {"Polling place - name": "15th Finchley Scout Group ", "Polling place - address": "104 Grove Road, North Finchley N12 9EA", "Ward": "Woodhouse", "Polling district": "FHB"}}, {"type": "Feature", "geometry": {"type": "Point", "coordinates": [-0.168625, 51.609364]}, "properties": {"Polling place - name": "Summerside School", "Polling place - address": "Crossway, Finchley N12 0QU", "Ward": "Woodhouse", "Polling district": "FHC"}}, {"type": "Feature", "geometry": {"type": "Point", "coordinates": [-0.178039, 51.605087]}, "properties": {"Polling place - name": "Our Lady of Lourdes RC Primary School,", "Polling place - address": "Bow Lane, Finchley N12 0JP", "Ward": "Woodhouse", "Polling district": "FHD"}}, {"type": "Feature", "geometry": {"type": "Point", "coordinates": [-0.172347, 51.599765]}, "properties": {"Polling place - name": "The Green Man Community Centre (Strawberry Vale Estate)", "Polling place - address": "Strawberry Vale, Finchley N2 9BA", "Ward": "East Finchley", "Polling district": "FIA"}}, {"type": "Feature", "geometry": {"type": "Point", "coordinates": [-0.168185, 51.594835]}, "properties": {"Polling place - name": "Martin Primary School", "Polling place - address": "Plane Tree Walk, East Finchley N2 9JP", "Ward": "East Finchley", "Polling district": "FIB"}}, {"type": "Feature", "geometry": {"type": "Point", "coordinates": [-0.164374, 51.590864]}, "properties": {"Polling place - name": "Finchley Youth Centre", "Polling place - address": "142 High Road, East Finchley N2 9ED", "Ward": "East Finchley", "Polling district": "FIC"}}, {"type": "Feature", "geometry": {"type": "Point", "coordinates": [-0.178293, 51.594066]}, "properties": {"Polling place - name": "Bishop Douglass RC High School", "Polling place - address": "Hamilton Road, East Finchley N2 0SQ", "Ward": "East Finchley", "Polling district": "FID"}}, {"type": "Feature", "geometry": {"type": "Point", "coordinates": [-0.188058, 51.589937]}, "properties": {"Polling place - name": "Brookland Infants School", "Polling place - address": "Hill Top, Hampstead Garden Suburb NW11 6EJ ", "Ward": "Garden Suburb", "Polling district": "FJA"}}, {"type": "Feature", "geometry": {"type": "Point", "coordinates": [-0.172434, 51.586079]}, "properties": {"Polling place - name": "Portable Office (The Green Widecombe Way/Vivian Way)", "Polling place - address": "The Green, Widecombe Way/Vivian Way, \nGarden Suburb N2 0HL", "Ward": "Garden Suburb", "Polling district": "FJB"}}, {"type": "Feature", "geometry": {"type": "Point", "coordinates": [-0.1739, 51.583009]}, "properties": {"Polling place - name": "Portable Office \n(The Synagogue, Norrice Lea)", "Polling place - address": "The Synagogue, Norrice Lea, Garden Suburb N2 0RE", "Ward": "Garden Suburb", "Polling district": "FJC"}}, {"type": "Feature", "geometry": {"type": "Point", "coordinates": [-0.189283, 51.580208]}, "properties": {"Polling place - name": "St Jude\u2019s Church Hall", "Polling place - address": "1 South Square, London NW11 7AH", "Ward": "Garden Suburb", "Polling district": "FJD"}}, {"type": "Feature", "geometry": {"type": "Point", "coordinates": [-0.195326, 51.576299]}, "properties": {"Polling place - name": "St Edward the Confessor Church Hall", "Polling place - address": " Hoop Lane, Golders Green NW11 7NH ", "Ward": "Garden Suburb", "Polling district": "FJE"}}, {"type": "Feature", "geometry": {"type": "Point", "coordinates": [-0.196813, 51.585764]}, "properties": {"Polling place - name": "Fellowship House", "Polling place - address": "136A Willifield Way, London NW11 6YD", "Ward": "Garden Suburb", "Polling district": "FJF"}}, {"type": "Feature", "geometry": {"type": "Point", "coordinates": [-0.199293, 51.569041]}, "properties": {"Polling place - name": "Harris Room, Trinity Church", "Polling place - address": "Trinity Church, Rodborough Road, Childs Hill NW11 8NH", "Ward": "Childs Hill", "Polling district": "FKA"}}, {"type": "Feature", "geometry": {"type": "Point", "coordinates": [-0.201009, 51.562143]}, "properties": {"Polling place - name": "Childs Hill Library", "Polling place - address": "320 Cricklewood Lane, London NW2 2QE", "Ward": "Childs Hill", "Polling district": "FKB"}}, {"type": "Feature", "geometry": {"type": "Point", "coordinates": [-0.207701, 51.560734]}, "properties": {"Polling place - name": "St Agnes Centre", "Polling place - address": "corner of Gillingham Road and Cricklewood Lane,\nCricklewood NW2 1HR", "Ward": "Childs Hill", "Polling district": "FKC"}}, {"type": "Feature", "geometry": {"type": "Point", "coordinates": [-0.217557, 51.560309]}, "properties": {"Polling place - name": "Trading Hut", "Polling place - address": "Rear of 22-23 Needham Terrace, Cricklewood NW2 6QL", "Ward": "Childs Hill", "Polling district": "FKD"}}, {"type": "Feature", "geometry": {"type": "Point", "coordinates": [-0.204483, 51.583068]}, "properties": {"Polling place - name": "St Mary & Archangel Michael Coptic Orthodox Church Hall", "Polling place - address": "Cranbourne Gardens, Golders Green \nNW11 0HU", "Ward": "Golders Green", "Polling district": "FLA"}}, {"type": "Feature", "geometry": {"type": "Point", "coordinates": [-0.2069, 51.574481]}, "properties": {"Polling place - name": "Menorah Primary School", "Polling place - address": "1-3 The Drive, Golders Green NW11 9SP", "Ward": "Golders Green", "Polling district": "FLB"}}, {"type": "Feature", "geometry": {"type": "Point", "coordinates": [-0.217691, 51.565716]}, "properties": {"Polling place - name": "Claremont Primary School", "Polling place - address": "Claremont Road, Cricklewood NW2 1AB", "Ward": "Golders Green", "Polling district": "FLC"}}, {"type": "Feature", "geometry": {"type": "Point", "coordinates": [-0.198441, 51.597875]}, "properties": {"Polling place - name": "St Philip The Apostle Parish Centre", "Polling place - address": "Gravel Hill, Finchley N3 3RJ", "Ward": "Finchley \u2013 Church End", "Polling district": "FMA"}}, {"type": "Feature", "geometry": {"type": "Point", "coordinates": [-0.196301, 51.596871]}, "properties": {"Polling place - name": "The Dining Room, Stephens House", "Polling place - address": "Stephens House & Gardens, East End Road, Finchley N3 3QE", "Ward": "Finchley \u2013 Church End", "Polling district": "FMB"}}, {"type": "Feature", "geometry": {"type": "Point", "coordinates": [-0.196533, 51.59647]}, "properties": {"Polling place - name": "Finchley Baptist Church Hall", "Polling place - address": "Stanhope Avenue, Finchley N3 3QL", "Ward": "Finchley \u2013 Church End", "Polling district": "FMC"}}, {"type": "Feature", "geometry": {"type": "Point", "coordinates": [-0.205742, 51.592511]}, "properties": {"Polling place - name": "Chalgrove School", "Polling place - address": "Chalgrove Gardens, Finchley N3 3PL", "Ward": "Finchley \u2013 Church End", "Polling district": "FMD"}}, {"type": "Feature", "geometry": {"type": "Point", "coordinates": [-0.209557, 51.601238]}, "properties": {"Polling place - name": "Portable Office at Hendon Cemetery", "Polling place - address": "Holders Hill Road, Hendon NW7 1NB", "Ward": "Finchley \u2013 Church End", "Polling district": "FME"}}, {"type": "Feature", "geometry": {"type": "Point", "coordinates": [-0.17936, 51.613587]}, "properties": {"Polling place - name": "Trinity Church Centre", "Polling place - address": "15 Nether Street, Finchley N12 7NN ", "Ward": "West Finchley", "Polling district": "FNA"}}, {"type": "Feature", "geometry": {"type": "Point", "coordinates": [-0.187227, 51.603557]}, "properties": {"Polling place - name": "St Paul's Centre", "Polling place - address": "50 Long Lane, London N3 2PU", "Ward": "West Finchley", "Polling district": "FNB"}}, {"type": "Feature", "geometry": {"type": "Point", "coordinates": [-0.186575, 51.608699]}, "properties": {"Polling place - name": "Essex Hall", "Polling place - address": "5 Essex Park, London N3 1ND", "Ward": "West Finchley", "Polling district": "FND"}}, {"type": "Feature", "geometry": {"type": "Point", "coordinates": [-0.256425, 51.627391]}, "properties": {"Polling place - name": "Fairway Primary School", "Polling place - address": "The Fairway, Mill Hill NW7 3HS", "Ward": "Hale", "Polling district": "HOA"}}, {"type": "Feature", "geometry": {"type": "Point", "coordinates": [-0.252876, 51.627239]}, "properties": {"Polling place - name": "Courtland School", "Polling place - address": "Courtland Avenue, Mill Hill NW7 3BG", "Ward": "Hale", "Polling district": "HOB"}}, {"type": "Feature", "geometry": {"type": "Point", "coordinates": [-0.26203, 51.612646]}, "properties": {"Polling place - name": "Deansbrook Infant School", "Polling place - address": "Hale Drive, London NW7 3ED", "Ward": "Hale", "Polling district": "HOC"}}, {"type": "Feature", "geometry": {"type": "Point", "coordinates": [-0.260757, 51.617258]}, "properties": {"Polling place - name": "Portable Office at Harvester Car Park", "Polling place - address": "Selvage Lane, Edgware HA8 9RZ", "Ward": "Hale", "Polling district": "HOD "}}, {"type": "Feature", "geometry": {"type": "Point", "coordinates": [-0.270381, 51.622471]}, "properties": {"Polling place - name": "Scout Hut, Edgware United Synagogue", "Polling place - address": "Scout Hut at Edgware United Synagogue, Off Broadhurst Avenue, Edgware HA8 8TL", "Ward": "Hale", "Polling district": "HOE"}}, {"type": "Feature", "geometry": {"type": "Point", "coordinates": [-0.258232, 51.611879]}, "properties": {"Polling place - name": "The Annunciation Catholic Junior School", "Polling place - address": "The Meads, Edgware HA8 9HQ", "Ward": "Hale", "Polling district": "HOF"}}, {"type": "Feature", "geometry": {"type": "Point", "coordinates": [-0.24046, 51.6154]}, "properties": {"Polling place - name": "Etz Chaim Jewish School", "Polling place - address": "20 Daws Lane, Mill Hill NW7 4SL", "Ward": "Mill Hill", "Polling district": "HPA"}}, {"type": "Feature", "geometry": {"type": "Point", "coordinates": [-0.23139, 51.620561]}, "properties": {"Polling place - name": "St Paul\u2019s Church Hall", "Polling place - address": "The Ridgeway, Mill Hill NW7 1QU", "Ward": "Mill Hill", "Polling district": "HPB"}}, {"type": "Feature", "geometry": {"type": "Point", "coordinates": [-0.211777, 51.609041]}, "properties": {"Polling place - name": "Portable Offices, Bittacy Road", "Polling place - address": "Bittacy Road, London NW7 1BP", "Ward": "Mill Hill", "Polling district": "HPC"}}, {"type": "Feature", "geometry": {"type": "Point", "coordinates": [-0.224313, 51.608683]}, "properties": {"Polling place - name": "Dollis Infants School", "Polling place - address": "Pursley Road, Mill Hill NW7 2BU", "Ward": "Mill Hill", "Polling district": "HPD"}}, {"type": "Feature", "geometry": {"type": "Point", "coordinates": [-0.243567, 51.614988]}, "properties": {"Polling place - name": "Mill Hill Library", "Polling place - address": "Hartley Avenue, Mill Hill NW7 2HX", "Ward": "Mill Hill", "Polling district": "HPE"}}, {"type": "Feature", "geometry": {"type": "Point", "coordinates": [-0.207527, 51.609893]}, "properties": {"Polling place - name": "Millbrook Park Primary School", "Polling place - address": "School House Lane, London NW7 1JF", "Ward": "Mill Hill", "Polling district": "HPF"}}, {"type": "Feature", "geometry": {"type": "Point", "coordinates": [-0.232315, 51.59153]}, "properties": {"Polling place - name": "Sunnyfields School", "Polling place - address": "Greyhound Hill, London NW4 4JH", "Ward": "Hendon", "Polling district": "HQA"}}, {"type": "Feature", "geometry": {"type": "Point", "coordinates": [-0.226161, 51.592732]}, "properties": {"Polling place - name": "St Mary & St John CE School", "Polling place - address": "Bennett House, Sunningfields Road, Hendon NW4 4QR", "Ward": "Hendon", "Polling district": "HQB"}}, {"type": "Feature", "geometry": {"type": "Point", "coordinates": [-0.215714, 51.587079]}, "properties": {"Polling place - name": "Bell Lane School", "Polling place - address": "Bell Lane, Hendon NW4  2AS", "Ward": "Hendon", "Polling district": "HQC"}}, {"type": "Feature", "geometry": {"type": "Point", "coordinates": [-0.215714, 51.587079]}, "properties": {"Polling place - name": "Hendon School ", "Polling place - address": "Green Lane Entrance, Hendon  NW4 2AS", "Ward": "Hendon", "Polling district": "HQD"}}, {"type": "Feature", "geometry": {"type": "Point", "coordinates": [-0.236915, 51.57936]}, "properties": {"Polling place - name": "Barnet Multi-Cultural Community Centre", "Polling place - address": "Algernon Road, Hendon NW4 3TA", "Ward": "West Hendon", "Polling district": "HRA"}}, {"type": "Feature", "geometry": {"type": "Point", "coordinates": [-0.216269, 51.582123]}, "properties": {"Polling place - name": "Hasmonean Primary School", "Polling place - address": " 8-10 Shirehall Lane, Hendon NW4 2PD", "Ward": "West Hendon", "Polling district": "HRB"}}, {"type": "Feature", "geometry": {"type": "Point", "coordinates": [-0.231, 51.577068]}, "properties": {"Polling place - name": "Parkfield Primary School", "Polling place - address": "St David\u2019s Place, Park Road, Hendon NW4 3PJ", "Ward": "West Hendon", "Polling district": "HRC"}}, {"type": "Feature", "geometry": {"type": "Point", "coordinates": [-0.248224, 51.582551]}, "properties": {"Polling place - name": "The Hyde School ", "Polling place - address": "Hyde Crescent/Edgware Road, Hendon NW9 7EY", "Ward": "West Hendon", "Polling district": "HRE"}}, {"type": "Feature", "geometry": {"type": "Point", "coordinates": [-0.24603, 51.603173]}, "properties": {"Polling place - name": "St Augustines Church Hall", "Polling place - address": "Great Field, Grahame Park, London NW9 5SY", "Ward": "Colindale", "Polling district": "HSA "}}, {"type": "Feature", "geometry": {"type": "Point", "coordinates": [-0.250825, 51.587364]}, "properties": {"Polling place - name": "The Hyde United Reform Church Hall", "Polling place - address": "Colin Close,  Colindale, London NW9 6RR", "Ward": "Colindale", "Polling district": "HSC"}}, {"type": "Feature", "geometry": {"type": "Point", "coordinates": [-0.242917, 51.596257]}, "properties": {"Polling place - name": "Estate Management Suite", "Polling place - address": "16 Heritage Avenue, Beaufort Park, London NW9 5EN", "Ward": "Colindale", "Polling district": "HSD"}}, {"type": "Feature", "geometry": {"type": "Point", "coordinates": [-0.251163, 51.609014]}, "properties": {"Polling place - name": "The Eversfield Centre", "Polling place - address": "11 Eversfield Gardens, Mill Hill NW7 2AE", "Ward": "Burnt Oak", "Polling district": "HTA "}}, {"type": "Feature", "geometry": {"type": "Point", "coordinates": [-0.260125, 51.602762]}, "properties": {"Polling place - name": "Our Lady of the Annunciation Church Hall", "Polling place - address": "Cnr Thirleby Road and Gervase Road, Burnt Oak HA8 0HQ", "Ward": "Burnt Oak", "Polling district": "HTB"}}, {"type": "Feature", "geometry": {"type": "Point", "coordinates": [-0.263049, 51.599937]}, "properties": {"Polling place - name": "St Alphage Church Hall", "Polling place - address": "Playfield Road, Burnt Oak, Edgware HA8 0DF", "Ward": "Burnt Oak", "Polling district": "HTC"}}, {"type": "Feature", "geometry": {"type": "Point", "coordinates": [-0.266073, 51.608893]}, "properties": {"Polling place - name": "Watling Community Association ", "Polling place - address": "145 Orange Hill Road, Edgware HA8 0TR", "Ward": "Burnt Oak", "Polling district": "HTD "}}, {"type": "Feature", "geometry": {"type": "Point", "coordinates": [-0.273663, 51.629624]}, "properties": {"Polling place - name": "Broadfields School", "Polling place - address": "Roseberry Drive, Off Bushfield Crescent, Edgware HA8 8JP", "Ward": "Edgware", "Polling district": "HUA"}}, {"type": "Feature", "geometry": {"type": "Point", "coordinates": [-0.276753, 51.614823]}, "properties": {"Polling place - name": "Edgware Parish Hall", "Polling place - address": "Rectory Lane, Station Road, Edgware HA8 7LG", "Ward": "Edgware", "Polling district": "HUB"}}, {"type": "Feature", "geometry": {"type": "Point", "coordinates": [-0.28745, 51.622245]}, "properties": {"Polling place - name": "One Stonegrove Community Centre", "Polling place - address": "5 Hayling Way, Edgware HA8 8BN\n", "Ward": "Edgware", "Polling district": "HUC"}}]}