{"type": "FeatureCollection", "features": [{"type": "Feature", "geometry": {"type": "Point", "coordinates": [-0.09919409, 51.51185529]}, "properties": {"GmlID": "Grit_Bins.321", "OBJECTID": 321, "Street_Name": "Queen Victoria Street", "Location": "Queen Victoria Street Junction White Lion Hill"}}, {"type": "Feature", "geometry": {"type": "Point", "coordinates": [-0.09527783, 51.5173725]}, "properties": {"GmlID": "Grit_Bins.641", "OBJECTID": 641, "Street_Name": "London Wall", "Location": "London Wall Junction Noble Street"}}, {"type": "Feature", "geometry": {"type": "Point", "coordinates": [-0.09439676, 51.51735476]}, "properties": {"GmlID": "Grit_Bins.642", "OBJECTID": 642, "Street_Name": "London Wall", "Location": "London Wall  North of Wood Street"}}, {"type": "Feature", "geometry": {"type": "Point", "coordinates": [-0.09259545, 51.51735163]}, "properties": {"GmlID": "Grit_Bins.645", "OBJECTID": 645, "Street_Name": "Aldersgate Street", "Location": "Aldersgate Street Rotunda by Museum Stairs"}}, {"type": "Feature", "geometry": {"type": "Point", "coordinates": [-0.09259545, 51.51735163]}, "properties": {"GmlID": "Grit_Bins.646", "OBJECTID": 646, "Street_Name": "Basinghall Street", "Location": "Basinghall Street By Entrance to Guildhall North"}}, {"type": "Feature", "geometry": {"type": "Point", "coordinates": [-0.09154467, 51.51638444]}, "properties": {"GmlID": "Grit_Bins.648", "OBJECTID": 648, "Street_Name": "Blackfriars Bridge South", "Location": "Blackfriars Bridge South Garden Area"}}, {"type": "Feature", "geometry": {"type": "Point", "coordinates": [-0.1046148, 51.5107808]}, "properties": {"GmlID": "Grit_Bins.656", "OBJECTID": 656, "Street_Name": "Victoria Embankment", "Location": "Victoria Embankment Slip Road by Stairs to Paul's Walk"}}, {"type": "Feature", "geometry": {"type": "Point", "coordinates": [-0.10415701, 51.50847111]}, "properties": {"GmlID": "Grit_Bins.657", "OBJECTID": 657, "Street_Name": "Victoria Embankment", "Location": "Victoria Embankment by HMS President"}}, {"type": "Feature", "geometry": {"type": "Point", "coordinates": [-0.10555933, 51.5108778]}, "properties": {"GmlID": "Grit_Bins.658", "OBJECTID": 658, "Street_Name": "Byward Street", "Location": "Byward Street Junction Great Tower Street"}}, {"type": "Feature", "geometry": {"type": "Point", "coordinates": [-0.08065574, 51.50944216]}, "properties": {"GmlID": "Grit_Bins.660", "OBJECTID": 660, "Street_Name": "null", "Location": "null"}}, {"type": "Feature", "geometry": {"type": "Point", "coordinates": [-0.07703299, 51.51370847]}, "properties": {"GmlID": "Grit_Bins.673", "OBJECTID": 673, "Street_Name": "Duke's Place", "Location": "Duke's Place Junction Aldgate High Street"}}, {"type": "Feature", "geometry": {"type": "Point", "coordinates": [-0.07385139, 51.51410261]}, "properties": {"GmlID": "Grit_Bins.675", "OBJECTID": 675, "Street_Name": "Mansell Street", "Location": "Mansell Street By Exit 16 Aldgate High Street"}}, {"type": "Feature", "geometry": {"type": "Point", "coordinates": [-0.07506873, 51.515198]}, "properties": {"GmlID": "Grit_Bins.676", "OBJECTID": 676, "Street_Name": "Middlesex Street", "Location": "Middlesex Street Junction St Botolph Street"}}, {"type": "Feature", "geometry": {"type": "Point", "coordinates": [-0.07450869, 51.51132678]}, "properties": {"GmlID": "Grit_Bins.678", "OBJECTID": 678, "Street_Name": "Goodman's Yard", "Location": "Goodman's Yard By King George's Field Gate"}}, {"type": "Feature", "geometry": {"type": "Point", "coordinates": [-0.08280851, 51.51742831]}, "properties": {"GmlID": "Grit_Bins.680", "OBJECTID": 680, "Street_Name": "Liverpool Street", "Location": "Liverpool Street By Station Old Broad Street"}}, {"type": "Feature", "geometry": {"type": "Point", "coordinates": [-0.08668912, 51.51051374]}, "properties": {"GmlID": "Grit_Bins.682", "OBJECTID": 682, "Street_Name": "King William Street ", "Location": "King William Street  Junction Fish Street Hill"}}, {"type": "Feature", "geometry": {"type": "Point", "coordinates": [-0.08715265, 51.50917775]}, "properties": {"GmlID": "Grit_Bins.683", "OBJECTID": 683, "Street_Name": "London Bridge", "Location": "London Bridge Outside Adelaide House"}}, {"type": "Feature", "geometry": {"type": "Point", "coordinates": [-0.08826368, 51.50686421]}, "properties": {"GmlID": "Grit_Bins.684", "OBJECTID": 684, "Street_Name": "London Bridge South", "Location": "London Bridge South By Glaziers' Hall"}}, {"type": "Feature", "geometry": {"type": "Point", "coordinates": [-0.08786746, 51.50633723]}, "properties": {"GmlID": "Grit_Bins.685", "OBJECTID": 685, "Street_Name": "London Bridge South", "Location": "London Bridge South  Walkway to Colechurch House"}}, {"type": "Feature", "geometry": {"type": "Point", "coordinates": [-0.09337446, 51.50983454]}, "properties": {"GmlID": "Grit_Bins.686", "OBJECTID": 686, "Street_Name": "Southwark Bridge North", "Location": "Southwark Bridge North by Three Cranes Walk"}}, {"type": "Feature", "geometry": {"type": "Point", "coordinates": [-0.09456861, 51.50779344]}, "properties": {"GmlID": "Grit_Bins.687", "OBJECTID": 687, "Street_Name": "Southwark Bridge South", "Location": "Southwark Bridge South by Bus Shelter"}}, {"type": "Feature", "geometry": {"type": "Point", "coordinates": [-0.09589874, 51.51103475]}, "properties": {"GmlID": "Grit_Bins.688", "OBJECTID": 688, "Street_Name": "High Timber Street", "Location": "High Timber Street bottom of Fyefoot overwalk"}}, {"type": "Feature", "geometry": {"type": "Point", "coordinates": [-0.09432839, 51.51237747]}, "properties": {"GmlID": "Grit_Bins.689", "OBJECTID": 689, "Street_Name": "Queen Victoria Street", "Location": "Queen Victoria Street Junction Cannon Street"}}, {"type": "Feature", "geometry": {"type": "Point", "coordinates": [-0.102212, 51.51204278]}, "properties": {"GmlID": "Grit_Bins.690", "OBJECTID": 690, "Street_Name": "Puddle Dock", "Location": "Puddle Dock Traffic Island Junction Queen Victoria Street"}}, {"type": "Feature", "geometry": {"type": "Point", "coordinates": [-0.10463177, 51.51429682]}, "properties": {"GmlID": "Grit_Bins.691", "OBJECTID": 691, "Street_Name": "Ludgate Circus North West", "Location": "Ludgate Circus North West by Ludgate House"}}, {"type": "Feature", "geometry": {"type": "Point", "coordinates": [-0.10417838, 51.51403374]}, "properties": {"GmlID": "Grit_Bins.692", "OBJECTID": 692, "Street_Name": "Ludgate Circus South East", "Location": "Ludgate Circus South East by Co Op"}}, {"type": "Feature", "geometry": {"type": "Point", "coordinates": [-0.10441731, 51.51181846]}, "properties": {"GmlID": "Grit_Bins.693", "OBJECTID": 693, "Street_Name": "Victoria Embankment", "Location": "Victoria Embankment by Exit 8 New Bridge Street"}}, {"type": "Feature", "geometry": {"type": "Point", "coordinates": [-0.09971374, 51.51576552]}, "properties": {"GmlID": "Grit_Bins.694", "OBJECTID": 694, "Street_Name": "Newgate Street", "Location": "Newgate Street by Greyfriars Passage"}}, {"type": "Feature", "geometry": {"type": "Point", "coordinates": [-0.10708665, 51.5176209]}, "properties": {"GmlID": "Grit_Bins.695", "OBJECTID": 695, "Street_Name": "Holborn Viaduct ", "Location": "Holborn Viaduct by St Andrew's Church Garden Area"}}, {"type": "Feature", "geometry": {"type": "Point", "coordinates": [-0.10119893, 51.51869357]}, "properties": {"GmlID": "Grit_Bins.696", "OBJECTID": 696, "Street_Name": "West Smithfield", "Location": "West Smithfield by Garden Entrance on Rotunda"}}, {"type": "Feature", "geometry": {"type": "Point", "coordinates": [-0.07611823, 51.50421764]}, "properties": {"GmlID": "Grit_Bins.994", "OBJECTID": 994, "Street_Name": "Tower Bridge Road South", "Location": "Tower Bridge Road South By South East Steps to Shad Thames"}}, {"type": "Feature", "geometry": {"type": "Point", "coordinates": [-0.07435698, 51.50685776]}, "properties": {"GmlID": "Grit_Bins.995", "OBJECTID": 995, "Street_Name": "Tower Bridge East", "Location": "Tower Bridge East by Stairs To St Kathrine's Dock"}}, {"type": "Feature", "geometry": {"type": "Point", "coordinates": [-0.07459919, 51.50692615]}, "properties": {"GmlID": "Grit_Bins.996", "OBJECTID": 996, "Street_Name": "Tower Bridge East", "Location": "Tower Bridge East by Stairs to Thames Path Tower of London"}}, {"type": "Feature", "geometry": {"type": "Point", "coordinates": [-0.07576043, 51.51474276]}, "properties": {"GmlID": "Grit_Bins.1313", "OBJECTID": 1313, "Street_Name": "null", "Location": "null"}}]}