{"type":"FeatureCollection","features":[{"type":"Feature","id":1,"geometry":{"type":"Point","coordinates":[-0.16817033300282228,51.487472155478869]},"properties":{"OBJECTID":1,"Name":"Chelsea Old Town Hall","Address":"165/181 King's Road SW3 5EZ","UPRN":217105145,"Easting":527281,"Northing":178093,"ID":1}},{"type":"Feature","id":2,"geometry":{"type":"Point","coordinates":[-0.1952657065138359,51.502388403743673]},"properties":{"OBJECTID":2,"Name":"Kensington Town Hall","Address":"Hornton Street, London W8 7NX","UPRN":217110840,"Easting":525359,"Northing":179705,"ID":2}},{"type":"Feature","id":3,"geometry":{"type":"Point","coordinates":[-0.20403137469995417,51.521668271614949]},"properties":{"OBJECTID":3,"Name":"Muslim Cultural Heritage Centre","Address":"244 Acklam Rd, London W10 5YG","UPRN":217108478,"Easting":524698,"Northing":181834,"ID":3}},{"type":"Feature","id":4,"geometry":{"type":"Point","coordinates":[-0.22455368193002534,51.524372687555804]},"properties":{"OBJECTID":4,"Name":"Dalgarno Community Centre","Address":"1 Webb Close, Dalgarno Way, W10 5QB","UPRN":217023026,"Easting":523267,"Northing":182100,"ID":4}},{"type":"Feature","id":5,"geometry":{"type":"Point","coordinates":[-0.19709423019528952,51.498774498447531]},"properties":{"OBJECTID":5,"Name":"Our Lady of Victories Church","Address":"16 Abingdon Rd, W8 6AF.","UPRN":217000277,"Easting":525242,"Northing":179300,"ID":5}},{"type":"Feature","id":6,"geometry":{"type":"Point","coordinates":[-0.18422638016394893,51.484322618572783]},"properties":{"OBJECTID":6,"Name":"Our Lady of Dolours Servite Church","Address":"264 Fulham Rd,  SW10 9EL.","UPRN":217105487,"Easting":526175,"Northing":177715,"ID":6}},{"type":"Feature","id":7,"geometry":{"type":"Point","coordinates":[-0.16853193909614306,51.489950786824856]},"properties":{"OBJECTID":7,"Name":"St Lukes Church Hall","Address":"31 St Lukes St, SW3 3RP","UPRN":217081274,"Easting":527249,"Northing":178368,"ID":7}},{"type":"Feature","id":8,"geometry":{"type":"Point","coordinates":[-0.17484902809241976,51.491560032381201]},"properties":{"OBJECTID":8,"Name":"St Pauls Church","Address":"Onslow Square London SW7 3NX","UPRN":217062416,"Easting":526806,"Northing":178536,"ID":8}},{"type":"Feature","id":9,"geometry":{"type":"Point","coordinates":[-0.18668103003900616,51.497597796300354]},"properties":{"OBJECTID":9,"Name":"Christ Church Hall of Remembrance","Address":"Victoria Road, W8 5RQ","UPRN":217089088,"Easting":525968,"Northing":179187,"ID":9}},{"type":"Feature","id":10,"geometry":{"type":"Point","coordinates":[-0.16981340965058631,51.497875360348772]},"properties":{"OBJECTID":10,"Name":"Holy Trinity Brompton","Address":"Cottage Place, Brompton rd, London, SW7 1JA","UPRN":217007706,"Easting":527138,"Northing":179247,"ID":10}},{"type":"Feature","id":11,"geometry":{"type":"Point","coordinates":[-0.2093634056174084,51.518045085971835]},"properties":{"OBJECTID":11,"Name":"Pepper Pot Club","Address":"1a Thorpe Close","UPRN":217101655,"Easting":524337.96418899996,"Northing":181422.029209,"ID":11}},{"type":"Feature","id":12,"geometry":{"type":"Point","coordinates":[-0.17990731548256642,51.481558674755583]},"properties":{"OBJECTID":12,"Name":"Chelsea Theatre","Address":"7 Worlds End, London, SW10 0DR","UPRN":217005389,"Easting":526482.50657299999,"Northing":177415.087937,"ID":12}},{"type":"Feature","id":13,"geometry":{"type":"Point","coordinates":[-0.21559882151696724,51.511917092121543]},"properties":{"OBJECTID":13,"Name":"St. Clement and St. James Community Project","Address":"95 Sirdar Road, W11 4EQ","UPRN":217120748,"Easting":523921.98384499998,"Northing":180730.01615499999,"ID":13}},{"type":"Feature","id":14,"geometry":{"type":"Point","coordinates":[-0.21598019997151971,51.506995977595928]},"properties":{"OBJECTID":14,"Name":"Edward Woods","Address":"60-70 Norland Road, W11 4TX","UPRN":217059117,"Easting":523908.86770800001,"Northing":180182.13229199999,"ID":14}},{"type":"Feature","id":15,"geometry":{"type":"Point","coordinates":[-0.21991797487434761,51.513133853352009]},"properties":{"OBJECTID":15,"Name":"Harrow Club","Address":"187 Freston Road, W10 6TH","UPRN":217032649,"Easting":523618.99353799998,"Northing":180858.02584799999,"ID":15}},{"type":"Feature","id":16,"geometry":{"type":"Point","coordinates":[-0.18044946488454813,51.481694019097745]},"properties":{"OBJECTID":16,"Name":"St Cuthberts Centre","Address":"Philbeach Gardens, SW5 9EB","UPRN":217067932,"Easting":526444.48935499997,"Northing":177429.20295499999,"ID":16}},{"type":"Feature","id":17,"geometry":{"type":"Point","coordinates":[-0.20044275885125537,51.491306639216958]},"properties":{"OBJECTID":17,"Name":"St Johns Church Centre","Address":"461 King's Road, Chelsea, SW10 0LU","UPRN":217121381,"Easting":525030.01050099998,"Northing":178463.84168000001,"ID":17}},{"type":"Feature","id":18,"geometry":{"type":"Point","coordinates":[-0.18410249090054451,51.489230107625822]},"properties":{"OBJECTID":18,"Name":"St Mary the Boltons","Address":"The Boltons, Chelsea, SW10 9TP","UPRN":217086365,"Easting":526170.064931,"Northing":178260.935069,"ID":18}},{"type":"Feature","id":19,"geometry":{"type":"Point","coordinates":[-0.21000065275755989,51.52273071074989]},"properties":{"OBJECTID":19,"Name":"Venture Centre","Address":"103a  Wornington Rd W10 5RG","UPRN":217094035,"Easting":524281,"Northing":181942,"ID":19}},{"type":"Feature","id":20,"geometry":{"type":"Point","coordinates":[-0.20541919527472863,51.516069120112327]},"properties":{"OBJECTID":20,"Name":"Salvation Army - Notting Hill","Address":"205 Portobello Road W11 1LU","UPRN":217069451,"Easting":524617,"Northing":181209,"ID":20}},{"type":"Feature","id":21,"geometry":{"type":"Point","coordinates":[-0.20543743454326746,51.523668166075097]},"properties":{"OBJECTID":21,"Name":"The Oremi Centre","Address":"Trellick Tower, 5 Golborne Road, W10 5PA","UPRN":217105049,"Easting":524595,"Northing":182054,"ID":21}},{"type":"Feature","id":22,"geometry":{"type":"Point","coordinates":[-0.19150381110978182,51.50496530950528]},"properties":{"OBJECTID":22,"Name":"St Mary's Abbott Centre","Address":"Vicarage Gate, London ,W8 4HN","UPRN":217088728,"Easting":525613,"Northing":179998,"ID":22}},{"type":"Feature","id":23,"geometry":{"type":"Point","coordinates":[-0.16267799159513402,51.497610921703078]},"properties":{"OBJECTID":23,"Name":"St Saviour's Church","Address":"Walton Place, SW3 1SA","UPRN":217089416,"Easting":527634,"Northing":179230,"ID":23}},{"type":"Feature","id":24,"geometry":{"type":"Point","coordinates":[-0.16918911423916921,51.489727238253217]},"properties":{"OBJECTID":24,"Name":"St Luke and Christ Church","Address":"Sydney Street SW3 6NH","UPRN":217085319,"Easting":527204,"Northing":178342,"ID":24}},{"type":"Feature","id":25,"geometry":{"type":"Point","coordinates":[-0.20688824617735599,51.499221396053876]},"properties":{"OBJECTID":25,"Name":"St Barnabas Church","Address":"23 Addison Road, W14 8LH","UPRN":217000938,"Easting":524561,"Northing":179333,"ID":25}},{"type":"Feature","id":26,"geometry":{"type":"Point","coordinates":[-0.20574583386172723,51.510622588299718]},"properties":{"OBJECTID":26,"Name":"St John's Church","Address":"Lansdowne Crescent","UPRN":0,"Easting":0,"Northing":0,"ID":26}},{"type":"Feature","id":27,"geometry":{"type":"Point","coordinates":[-0.20181139192141706,51.516873556790166]},"properties":{"OBJECTID":27,"Name":"The Tabernacle Centre","Address":"34-35 Powis Square W11 2AY","UPRN":0,"Easting":0,"Northing":0,"ID":27}},{"type":"Feature","id":28,"geometry":{"type":"Point","coordinates":[-0.21370271942073082,51.513764476583745]},"properties":{"OBJECTID":28,"Name":"Kensington Leisure Centre","Address":"Silchester Road W10 6EX","UPRN":0,"Easting":0,"Northing":0,"ID":28}}]}