{"type": "FeatureCollection", "features": [{"type": "Feature", "id": 1, "geometry": {"type": "Point", "coordinates": [-0.19514932590212508, 51.49403243045477]}, "properties": {"Camera_Number": 801, "Camera_Model": "Hik Vision", "Camera_Functionality": "PTZ", "Location": "Junction of Earls Court Road and Longridge Road", "Location_Area": "Earls Court", "Video_Management_System": "Genetec", "Ward": "Earl's Court", "Lat": 51.49403, "Long": -0.19518, "Eastings": 525390, "Northings": 178776, "Weblink": null, "Comments": null, "Last_Update_Date": 1691971200000, "Data_Custodian": "Sam Dickinson", "OBJECTID": 1, "_borough": "kensington-and-chelsea"}}, {"type": "Feature", "id": 2, "geometry": {"type": "Point", "coordinates": [-0.19467064085774072, 51.493386583699774]}, "properties": {"Camera_Number": 802, "Camera_Model": "Hik Vision", "Camera_Functionality": "PTZ", "Location": "Junction of 133 Earls Court Road and Nevern Place", "Location_Area": "Earls Court", "Video_Management_System": "Genetec", "Ward": "Earl's Court", "Lat": 51.493387, "Long": -0.19469, "Eastings": 525425, "Northings": 178705, "Weblink": null, "Comments": null, "Last_Update_Date": 1691971200000, "Data_Custodian": "Sam Dickinson", "OBJECTID": 2, "_borough": "kensington-and-chelsea"}}, {"type": "Feature", "id": 3, "geometry": {"type": "Point", "coordinates": [-0.1932599018606373, 51.49226775398556]}, "properties": {"Camera_Number": 804, "Camera_Model": "Hik Vision", "Camera_Functionality": "PTZ", "Location": "Earls Court Road Bureau de Change (junction Hogarth Road)", "Location_Area": "Earls Court", "Video_Management_System": "Genetec", "Ward": "Earl's Court", "Lat": 51.49227, "Long": -0.19329, "Eastings": 525526, "Northings": 178583, "Weblink": null, "Comments": null, "Last_Update_Date": 1691971200000, "Data_Custodian": "Sam Dickinson", "OBJECTID": 3, "_borough": "kensington-and-chelsea"}}, {"type": "Feature", "id": 4, "geometry": {"type": "Point", "coordinates": [-0.192168858811132, 51.49172959171487]}, "properties": {"Camera_Number": 805, "Camera_Model": "Hik Vision", "Camera_Functionality": "PTZ", "Location": "Earls Court Road Blackbird (junction Barkston Gardens)", "Location_Area": "Earls Court", "Video_Management_System": "Genetec", "Ward": "Earl's Court", "Lat": 51.49212, "Long": -0.19263, "Eastings": 525603, "Northings": 178525, "Weblink": null, "Comments": null, "Last_Update_Date": 1691971200000, "Data_Custodian": "Sam Dickinson", "OBJECTID": 4, "_borough": "kensington-and-chelsea"}}, {"type": "Feature", "id": 5, "geometry": {"type": "Point", "coordinates": [-0.19118823365851792, 51.49074304240457]}, "properties": {"Camera_Number": 806, "Camera_Model": "Hik Vision", "Camera_Functionality": "PTZ", "Location": "Junction of Earls Court Road and Earls Court Square", "Location_Area": "Earls Court", "Video_Management_System": "Genetec", "Ward": "Earl's Court", "Lat": 51.49074, "Long": -0.191212, "Eastings": 525674, "Northings": 178417, "Weblink": null, "Comments": null, "Last_Update_Date": 1691971200000, "Data_Custodian": "Sam Dickinson", "OBJECTID": 5, "_borough": "kensington-and-chelsea"}}, {"type": "Feature", "id": 6, "geometry": {"type": "Point", "coordinates": [-0.19221197878654006, 51.48962575402133]}, "properties": {"Camera_Number": 807, "Camera_Model": "Hik Vision", "Camera_Functionality": "PTZ", "Location": "36 Earls Court Square (south side)", "Location_Area": "Earls Court", "Video_Management_System": "Genetec", "Ward": "Earl's Court", "Lat": 51.489628, "Long": -0.192236, "Eastings": 525606, "Northings": 178291, "Weblink": null, "Comments": null, "Last_Update_Date": 1691971200000, "Data_Custodian": "Sam Dickinson", "OBJECTID": 6, "_borough": "kensington-and-chelsea"}}, {"type": "Feature", "id": 7, "geometry": {"type": "Point", "coordinates": [-0.1934751008656934, 51.49010384221017]}, "properties": {"Camera_Number": 808, "Camera_Model": "Hik Vision", "Camera_Functionality": "PTZ", "Location": "33 Earls Court Square (north side)", "Location_Area": "Earls Court", "Video_Management_System": "Genetec", "Ward": "Earl's Court", "Lat": 51.4901, "Long": -0.1935, "Eastings": 525517, "Northings": 178342, "Weblink": null, "Comments": null, "Last_Update_Date": 1691971200000, "Data_Custodian": "Sam Dickinson", "OBJECTID": 7, "_borough": "kensington-and-chelsea"}}, {"type": "Feature", "id": 8, "geometry": {"type": "Point", "coordinates": [-0.19553128347859897, 51.49020431639595]}, "properties": {"Camera_Number": 809, "Camera_Model": "Hik Vision", "Camera_Functionality": "PTZ", "Location": "Warwick Road Earls Court Station", "Location_Area": "Earls Court", "Video_Management_System": "Genetec", "Ward": "Earl's Court", "Lat": 51.49023, "Long": -0.19547, "Eastings": 525374, "Northings": 178350, "Weblink": null, "Comments": null, "Last_Update_Date": 1691971200000, "Data_Custodian": "Sam Dickinson", "OBJECTID": 8, "_borough": "kensington-and-chelsea"}}, {"type": "Feature", "id": 9, "geometry": {"type": "Point", "coordinates": [-0.1965465069459262, 51.49075361918725]}, "properties": {"Camera_Number": 810, "Camera_Model": "Hik Vision", "Camera_Functionality": "PTZ", "Location": "Junction of Warwick Road and Trebovir Road", "Location_Area": "Earls Court", "Video_Management_System": "Genetec", "Ward": "Earl's Court", "Lat": 51.490753, "Long": -0.1965704, "Eastings": 525302, "Northings": 178409, "Weblink": null, "Comments": null, "Last_Update_Date": 1691971200000, "Data_Custodian": "Sam Dickinson", "OBJECTID": 9, "_borough": "kensington-and-chelsea"}}, {"type": "Feature", "id": 10, "geometry": {"type": "Point", "coordinates": [-0.19792872659335617, 51.492231672836915]}, "properties": {"Camera_Number": 811, "Camera_Model": "Hik Vision", "Camera_Functionality": "PTZ", "Location": "49 Nevern Square (north side)", "Location_Area": "Earls Court", "Video_Management_System": "Genetec", "Ward": "Earl's Court", "Lat": 51.492231, "Long": -0.1979526, "Eastings": 525202, "Northings": 178571, "Weblink": null, "Comments": null, "Last_Update_Date": 1691971200000, "Data_Custodian": "Sam Dickinson", "OBJECTID": 10, "_borough": "kensington-and-chelsea"}}, {"type": "Feature", "id": 11, "geometry": {"type": "Point", "coordinates": [-0.19612892083796515, 51.49184429891437]}, "properties": {"Camera_Number": 812, "Camera_Model": "Hik Vision", "Camera_Functionality": "PTZ", "Location": "17 Nevern Square (south side)", "Location_Area": "Earls Court", "Video_Management_System": "Genetec", "Ward": "Earl's Court", "Lat": 51.491843, "Long": -0.1961528, "Eastings": 525328, "Northings": 178531, "Weblink": null, "Comments": null, "Last_Update_Date": 1691971200000, "Data_Custodian": "Sam Dickinson", "OBJECTID": 11, "_borough": "kensington-and-chelsea"}}, {"type": "Feature", "id": 12, "geometry": {"type": "Point", "coordinates": [-0.1953526028111083, 51.49253378301953]}, "properties": {"Camera_Number": 813, "Camera_Model": "Hik Vision", "Camera_Functionality": "PTZ", "Location": "Junction of Templeton Place. George and Spear Mews", "Location_Area": "Earls Court", "Video_Management_System": "Genetec", "Ward": "Courtfield", "Lat": 51.49253, "Long": -0.19537, "Eastings": 525380, "Northings": 178609, "Weblink": null, "Comments": null, "Last_Update_Date": 1691971200000, "Data_Custodian": "Sam Dickinson", "OBJECTID": 12, "_borough": "kensington-and-chelsea"}}, {"type": "Feature", "id": 13, "geometry": {"type": "Point", "coordinates": [-0.19506529645964657, 51.48777225381444]}, "properties": {"Camera_Number": 815, "Camera_Model": "Preaditor", "Camera_Functionality": "PTZ", "Location": "Junction of Eardley Crescent & Old Brompton Road", "Location_Area": "Earls Court", "Video_Management_System": "Genetec", "Ward": "Earl's Court", "Lat": 51.487775, "Long": -0.195089, "Eastings": 525413, "Northings": 178080, "Weblink": null, "Comments": null, "Last_Update_Date": 1691971200000, "Data_Custodian": "Sam Dickinson", "OBJECTID": 13, "_borough": "kensington-and-chelsea"}}, {"type": "Feature", "id": 14, "geometry": {"type": "Point", "coordinates": [-0.21036067636316777, 51.518329820848614]}, "properties": {"Camera_Number": 820, "Camera_Model": "Hik Vision", "Camera_Functionality": "PTZ", "Location": "Ladbroke grove junction Cambridge Gardens", "Location_Area": "Ladbroke Road ", "Video_Management_System": "HikVision", "Ward": "Golborne", "Lat": 51.51833, "Long": -0.21039, "Eastings": 524268, "Northings": 181452, "Weblink": null, "Comments": null, "Last_Update_Date": 1691971200000, "Data_Custodian": "Sam Dickinson", "OBJECTID": 14, "_borough": "kensington-and-chelsea"}}, {"type": "Feature", "id": 15, "geometry": {"type": "Point", "coordinates": [-0.21097159709948615, 51.518923659886944]}, "properties": {"Camera_Number": 821, "Camera_Model": "Hik Vision", "Camera_Functionality": "PTZ", "Location": "Ladbroke grove junction Oxford Gardens", "Location_Area": "Ladbroke Road ", "Video_Management_System": "HikVision", "Ward": "Golborne", "Lat": 51.51892, "Long": -0.21099, "Eastings": 524224, "Northings": 181517, "Weblink": null, "Comments": null, "Last_Update_Date": 1691971200000, "Data_Custodian": "Sam Dickinson", "OBJECTID": 15, "_borough": "kensington-and-chelsea"}}, {"type": "Feature", "id": 16, "geometry": {"type": "Point", "coordinates": [-0.21144509552369464, 51.52008193537988]}, "properties": {"Camera_Number": 822, "Camera_Model": "Hik Vision", "Camera_Functionality": "PTZ", "Location": "Ladbroke grove junction Chesterton Road", "Location_Area": "Ladbroke Road ", "Video_Management_System": "HikVision", "Ward": "Golborne", "Lat": 51.52008, "Long": -0.21147, "Eastings": 524188, "Northings": 181645, "Weblink": null, "Comments": null, "Last_Update_Date": 1691971200000, "Data_Custodian": "Sam Dickinson", "OBJECTID": 16, "_borough": "kensington-and-chelsea"}}, {"type": "Feature", "id": 17, "geometry": {"type": "Point", "coordinates": [-0.21195626889040406, 51.52064727023756]}, "properties": {"Camera_Number": 823, "Camera_Model": "Hik Vision", "Camera_Functionality": "PTZ", "Location": "Ladbroke grove junction St Charles Square", "Location_Area": "Ladbroke Road ", "Video_Management_System": "HikVision", "Ward": "St Helen's", "Lat": 51.52065, "Long": -0.21198, "Eastings": 524151, "Northings": 181707, "Weblink": null, "Comments": null, "Last_Update_Date": 1691971200000, "Data_Custodian": "Sam Dickinson", "OBJECTID": 17, "_borough": "kensington-and-chelsea"}}, {"type": "Feature", "id": 18, "geometry": {"type": "Point", "coordinates": [-0.21291572088408173, 51.52228056117513]}, "properties": {"Camera_Number": 824, "Camera_Model": "Hik Vision", "Camera_Functionality": "PTZ", "Location": "Ladbroke grove junction St Charles Square", "Location_Area": "Ladbroke Road ", "Video_Management_System": "HikVision", "Ward": "St Helen's", "Lat": 51.52228, "Long": -0.21294, "Eastings": 524080, "Northings": 181887, "Weblink": null, "Comments": null, "Last_Update_Date": 1691971200000, "Data_Custodian": "Sam Dickinson", "OBJECTID": 18, "_borough": "kensington-and-chelsea"}}, {"type": "Feature", "id": 19, "geometry": {"type": "Point", "coordinates": [-0.21350981150651605, 51.52367447222801]}, "properties": {"Camera_Number": 825, "Camera_Model": "Hik Vision", "Camera_Functionality": "PTZ", "Location": "Ladbroke grove junction Treverton Street", "Location_Area": "Ladbroke Road ", "Video_Management_System": "HikVision", "Ward": "Golborne", "Lat": 51.52367, "Long": -0.21353, "Eastings": 524035, "Northings": 182041, "Weblink": null, "Comments": null, "Last_Update_Date": 1691971200000, "Data_Custodian": "Sam Dickinson", "OBJECTID": 19, "_borough": "kensington-and-chelsea"}}, {"type": "Feature", "id": 20, "geometry": {"type": "Point", "coordinates": [-0.2108120816991161, 51.518948204883145]}, "properties": {"Camera_Number": 826, "Camera_Model": "Hik Vision", "Camera_Functionality": "PTZ", "Location": "Portobello Road junction Oxford Gardens", "Location_Area": "Portabello Road   ", "Video_Management_System": "HikVision", "Ward": "Golborne", "Lat": 51.51895, "Long": -0.21083, "Eastings": 524235, "Northings": 181520, "Weblink": null, "Comments": "no power", "Last_Update_Date": 1691971200000, "Data_Custodian": "Sam Dickinson", "OBJECTID": 20, "_borough": "kensington-and-chelsea"}}, {"type": "Feature", "id": 21, "geometry": {"type": "Point", "coordinates": [-0.2078715059465393, 51.51968567566512]}, "properties": {"Camera_Number": 827, "Camera_Model": "Hik Vision", "Camera_Functionality": "PTZ", "Location": "Portobello Road opposite Carmalite Monastery", "Location_Area": "Portabello Road   ", "Video_Management_System": "HikVision", "Ward": "Golborne", "Lat": 51.51968, "Long": -0.2079, "Eastings": 524437, "Northings": 181607, "Weblink": null, "Comments": "no power", "Last_Update_Date": 1691971200000, "Data_Custodian": "Sam Dickinson", "OBJECTID": 21, "_borough": "kensington-and-chelsea"}}, {"type": "Feature", "id": 22, "geometry": {"type": "Point", "coordinates": [-0.20827967325033034, 51.52030340885582]}, "properties": {"Camera_Number": 828, "Camera_Model": "Hik Vision", "Camera_Functionality": "PTZ", "Location": "Portobello Road - no junction - but between 827 and 871", "Location_Area": "Portabello Road   ", "Video_Management_System": "HikVision", "Ward": "Golborne", "Lat": 51.5203, "Long": -0.20831, "Eastings": 524407, "Northings": 181675, "Weblink": null, "Comments": "no power", "Last_Update_Date": 1691971200000, "Data_Custodian": "Sam Dickinson", "OBJECTID": 22, "_borough": "kensington-and-chelsea"}}, {"type": "Feature", "id": 23, "geometry": {"type": "Point", "coordinates": [-0.19821968413405086, 51.499097543389766]}, "properties": {"Camera_Number": 830, "Camera_Model": "Hik Vision", "Camera_Functionality": "PTZ", "Location": "Kensington High Street junction Earls Court road", "Location_Area": "High Street Kensington", "Video_Management_System": "HikVision", "Ward": "Abingdon", "Lat": 51.4991, "Long": -0.19824, "Eastings": 525163, "Northings": 179334, "Weblink": null, "Comments": null, "Last_Update_Date": 1691971200000, "Data_Custodian": "Sam Dickinson", "OBJECTID": 23, "_borough": "kensington-and-chelsea"}}, {"type": "Feature", "id": 24, "geometry": {"type": "Point", "coordinates": [-0.1973945386466009, 51.49956147543996]}, "properties": {"Camera_Number": 831, "Camera_Model": "Hik Vision", "Camera_Functionality": "PTZ", "Location": "Kensington High Street junction Philimore Gardens", "Location_Area": "High Street Kensington", "Video_Management_System": "HikVision", "Ward": "Campden", "Lat": 51.49956, "Long": -0.19742, "Eastings": 525219, "Northings": 179387, "Weblink": null, "Comments": null, "Last_Update_Date": 1691971200000, "Data_Custodian": "Sam Dickinson", "OBJECTID": 24, "_borough": "kensington-and-chelsea"}}, {"type": "Feature", "id": 25, "geometry": {"type": "Point", "coordinates": [-0.1960783818405072, 51.50005382158575]}, "properties": {"Camera_Number": 832, "Camera_Model": "Hik Vision", "Camera_Functionality": "PTZ", "Location": "Kensington High Street junction Allen Street", "Location_Area": "High Street Kensington", "Video_Management_System": "HikVision", "Ward": "Abingdon", "Lat": 51.50005, "Long": -0.1961, "Eastings": 525309, "Northings": 179444, "Weblink": null, "Comments": null, "Last_Update_Date": 1691971200000, "Data_Custodian": "Sam Dickinson", "OBJECTID": 25, "_borough": "kensington-and-chelsea"}}, {"type": "Feature", "id": 26, "geometry": {"type": "Point", "coordinates": [-0.19549317748476128, 51.500278628712984]}, "properties": {"Camera_Number": 833, "Camera_Model": "Hik Vision", "Camera_Functionality": "PTZ", "Location": "Kensington High Street junction Argyll Road", "Location_Area": "High Street Kensington", "Video_Management_System": "HikVision", "Ward": "Abingdon", "Lat": 51.50028, "Long": -0.19551, "Eastings": 525349, "Northings": 179470, "Weblink": null, "Comments": null, "Last_Update_Date": 1691971200000, "Data_Custodian": "Sam Dickinson", "OBJECTID": 26, "_borough": "kensington-and-chelsea"}}, {"type": "Feature", "id": 27, "geometry": {"type": "Point", "coordinates": [-0.19464593572052177, 51.50057134116754]}, "properties": {"Camera_Number": 834, "Camera_Model": "Hik Vision", "Camera_Functionality": "PTZ", "Location": "Kensington High Street junction Campden Hill Road", "Location_Area": "High Street Kensington", "Video_Management_System": "HikVision", "Ward": "Campden", "Lat": 51.50057, "Long": -0.19467, "Eastings": 525407, "Northings": 179504, "Weblink": null, "Comments": null, "Last_Update_Date": 1691971200000, "Data_Custodian": "Sam Dickinson", "OBJECTID": 27, "_borough": "kensington-and-chelsea"}}, {"type": "Feature", "id": 28, "geometry": {"type": "Point", "coordinates": [-0.19288546843396245, 51.5010028561448]}, "properties": {"Camera_Number": 835, "Camera_Model": "Hik Vision", "Camera_Functionality": "PTZ", "Location": "Kensington High Street no junction but outside the tube station", "Location_Area": "High Street Kensington", "Video_Management_System": "HikVision", "Ward": "Queen's Gate", "Lat": 51.501, "Long": -0.19291, "Eastings": 525528, "Northings": 179555, "Weblink": null, "Comments": null, "Last_Update_Date": 1691971200000, "Data_Custodian": "Sam Dickinson", "OBJECTID": 28, "_borough": "kensington-and-chelsea"}}, {"type": "Feature", "id": 29, "geometry": {"type": "Point", "coordinates": [-0.18107621165910842, 51.48168393086785]}, "properties": {"Camera_Number": 840, "Camera_Model": "Hik Vision", "Camera_Functionality": "PTZ", "Location": "Kings Road Between Edith Grove and Slaidburn Street", "Location_Area": "Kings Road      ", "Video_Management_System": "HikVision", "Ward": "Stanley", "Lat": 51.48168, "Long": -0.1811, "Eastings": 526401, "Northings": 177427, "Weblink": null, "Comments": null, "Last_Update_Date": 1691971200000, "Data_Custodian": "Sam Dickinson", "OBJECTID": 29, "_borough": "kensington-and-chelsea"}}, {"type": "Feature", "id": 30, "geometry": {"type": "Point", "coordinates": [-0.18015334249089385, 51.48207428070641]}, "properties": {"Camera_Number": 841, "Camera_Model": "Hik Vision", "Camera_Functionality": "PTZ", "Location": "Kings Road Junction Langton Street", "Location_Area": "Kings Road      ", "Video_Management_System": "HikVision", "Ward": "Chelsea Riverside", "Lat": 51.48207, "Long": -0.18018, "Eastings": 526464, "Northings": 177472, "Weblink": null, "Comments": null, "Last_Update_Date": 1691971200000, "Data_Custodian": "Sam Dickinson", "OBJECTID": 30, "_borough": "kensington-and-chelsea"}}, {"type": "Feature", "id": 31, "geometry": {"type": "Point", "coordinates": [-0.1787670502110319, 51.48261580703978]}, "properties": {"Camera_Number": 842, "Camera_Model": "Hik Vision", "Camera_Functionality": "PTZ", "Location": "Kings Road Junction Hobury Street", "Location_Area": "Kings Road      ", "Video_Management_System": "HikVision", "Ward": "Chelsea Riverside", "Lat": 51.48254, "Long": -0.17871, "Eastings": 526559, "Northings": 177535, "Weblink": null, "Comments": null, "Last_Update_Date": 1691971200000, "Data_Custodian": "Sam Dickinson", "OBJECTID": 31, "_borough": "kensington-and-chelsea"}}, {"type": "Feature", "id": 32, "geometry": {"type": "Point", "coordinates": [-0.17701075918629547, 51.48323048177912]}, "properties": {"Camera_Number": 843, "Camera_Model": "Hik Vision", "Camera_Functionality": "PTZ", "Location": "Kings Road Between Limerston Street & Milmans Street", "Location_Area": "Kings Road      ", "Video_Management_System": "HikVision", "Ward": "Royal Hospital", "Lat": 51.48323, "Long": -0.17703, "Eastings": 526679, "Northings": 177606, "Weblink": null, "Comments": null, "Last_Update_Date": 1691971200000, "Data_Custodian": "Sam Dickinson", "OBJECTID": 32, "_borough": "kensington-and-chelsea"}}, {"type": "Feature", "id": 33, "geometry": {"type": "Point", "coordinates": [-0.1625508057911335, 51.4900280908369]}, "properties": {"Camera_Number": 844, "Camera_Model": "Hik Vision", "Camera_Functionality": "PTZ", "Location": "Kings Road Junction Royal Avenue", "Location_Area": "Kings Road      ", "Video_Management_System": "HikVision", "Ward": "Royal Hospital", "Lat": 51.49003, "Long": -0.16258, "Eastings": 527664, "Northings": 178387, "Weblink": null, "Comments": null, "Last_Update_Date": 1691971200000, "Data_Custodian": "Sam Dickinson", "OBJECTID": 33, "_borough": "kensington-and-chelsea"}}, {"type": "Feature", "id": 34, "geometry": {"type": "Point", "coordinates": [-0.16202996406613474, 51.490442584971596]}, "properties": {"Camera_Number": 845, "Camera_Model": "Hik Vision", "Camera_Functionality": "PTZ", "Location": "Kings Road Junction Anderson Street", "Location_Area": "Kings Road      ", "Video_Management_System": "HikVision", "Ward": "Brompton and Hans Town", "Lat": 51.49044, "Long": -0.16206, "Eastings": 527699, "Northings": 178434, "Weblink": null, "Comments": null, "Last_Update_Date": 1691971200000, "Data_Custodian": "Sam Dickinson", "OBJECTID": 34, "_borough": "kensington-and-chelsea"}}, {"type": "Feature", "id": 35, "geometry": {"type": "Point", "coordinates": [-0.16020470604954892, 51.49141215214444]}, "properties": {"Camera_Number": 846, "Camera_Model": "Hik Vision", "Camera_Functionality": "PTZ", "Location": "Kings Road Junction Cadogan Gardens", "Location_Area": "Kings Road      ", "Video_Management_System": "HikVision", "Ward": "Brompton and Hans Town", "Lat": 51.49141, "Long": -0.16023, "Eastings": 527823, "Northings": 178545, "Weblink": null, "Comments": null, "Last_Update_Date": 1691971200000, "Data_Custodian": "Sam Dickinson", "OBJECTID": 35, "_borough": "kensington-and-chelsea"}}, {"type": "Feature", "id": 36, "geometry": {"type": "Point", "coordinates": [-0.15807993942115264, 51.49230504667493]}, "properties": {"Camera_Number": 847, "Camera_Model": "Hik Vision", "Camera_Functionality": "PTZ", "Location": "Kings Road Junction Sloane Square", "Location_Area": "Kings Road      ", "Video_Management_System": "HikVision", "Ward": "Royal Hospital", "Lat": 51.4923, "Long": -0.1581, "Eastings": 527968, "Northings": 178648, "Weblink": null, "Comments": null, "Last_Update_Date": 1691971200000, "Data_Custodian": "Sam Dickinson", "OBJECTID": 36, "_borough": "kensington-and-chelsea"}}, {"type": "Feature", "id": 37, "geometry": {"type": "Point", "coordinates": [-0.2092100145986379, 51.516064104638254]}, "properties": {"Camera_Number": 851, "Camera_Model": "Preaditor", "Camera_Functionality": "PTZ", "Location": "Ladroke Grove and Westborne Park Road West Side (building)", "Location_Area": "Portabello Road   ", "Video_Management_System": "Genetec", "Ward": "Colville", "Lat": 51.51606, "Long": -0.20923, "Eastings": 524354, "Northings": 181202, "Weblink": null, "Comments": null, "Last_Update_Date": 1691971200000, "Data_Custodian": "Sam Dickinson", "OBJECTID": 37, "_borough": "kensington-and-chelsea"}}, {"type": "Feature", "id": 38, "geometry": {"type": "Point", "coordinates": [-0.20961005894506182, 51.51688853987624]}, "properties": {"Camera_Number": 852, "Camera_Model": "Preaditor", "Camera_Functionality": "PTZ", "Location": "Junction of Ladbroke Grove /Lancaster Road", "Location_Area": "Portabello Road   ", "Video_Management_System": "Genetec", "Ward": "Colville", "Lat": 51.51689, "Long": -0.20964, "Eastings": 524324, "Northings": 181293, "Weblink": null, "Comments": null, "Last_Update_Date": 1691971200000, "Data_Custodian": "Sam Dickinson", "OBJECTID": 38, "_borough": "kensington-and-chelsea"}}, {"type": "Feature", "id": 39, "geometry": {"type": "Point", "coordinates": [-0.20999082636775213, 51.51746987866427]}, "properties": {"Camera_Number": 853, "Camera_Model": "Hik Vision", "Camera_Functionality": "PTZ", "Location": "Ladbroke Grove Tube under westway (south side)", "Location_Area": "Portabello Road   ", "Video_Management_System": "Genetec", "Ward": "Golborne", "Lat": 51.517467, "Long": -0.21001, "Eastings": 524296, "Northings": 181357, "Weblink": null, "Comments": null, "Last_Update_Date": 1691971200000, "Data_Custodian": "Sam Dickinson", "OBJECTID": 39, "_borough": "kensington-and-chelsea"}}, {"type": "Feature", "id": 40, "geometry": {"type": "Point", "coordinates": [-0.2103789587521824, 51.51823118093342]}, "properties": {"Camera_Number": 854, "Camera_Model": "Hik Vision", "Camera_Functionality": "PTZ", "Location": "Ladbroke Grove Junction of Thorpe Close", "Location_Area": "Portabello Road   ", "Video_Management_System": "Genetec", "Ward": "Golborne", "Lat": 51.51823, "Long": -0.21041, "Eastings": 524267, "Northings": 181441, "Weblink": null, "Comments": null, "Last_Update_Date": 1691971200000, "Data_Custodian": "Sam Dickinson", "OBJECTID": 40, "_borough": "kensington-and-chelsea"}}, {"type": "Feature", "id": 41, "geometry": {"type": "Point", "coordinates": [-0.21010319607000397, 51.51791223180052]}, "properties": {"Camera_Number": 855, "Camera_Model": "Hik Vision", "Camera_Functionality": "PTZ", "Location": "Thorpe Close middle section opposite the green", "Location_Area": "Portabello Road   ", "Video_Management_System": "Genetec", "Ward": "Golborne", "Lat": 51.517915, "Long": -0.21013, "Eastings": 524287, "Northings": 181406, "Weblink": null, "Comments": null, "Last_Update_Date": 1691971200000, "Data_Custodian": "Sam Dickinson", "OBJECTID": 41, "_borough": "kensington-and-chelsea"}}, {"type": "Feature", "id": 42, "geometry": {"type": "Point", "coordinates": [-0.20729225125414172, 51.5190203633437]}, "properties": {"Camera_Number": 856, "Camera_Model": "Hik Vision", "Camera_Functionality": "PTZ", "Location": "Junction of Portobello Road and Cambridge Gardens", "Location_Area": "Portabello Road   ", "Video_Management_System": "Genetec", "Ward": "Golborne", "Lat": 51.51902, "Long": -0.20732, "Eastings": 524479, "Northings": 181534, "Weblink": null, "Comments": null, "Last_Update_Date": 1691971200000, "Data_Custodian": "Sam Dickinson", "OBJECTID": 42, "_borough": "kensington-and-chelsea"}}, {"type": "Feature", "id": 43, "geometry": {"type": "Point", "coordinates": [-0.20662206773069225, 51.518101864422306]}, "properties": {"Camera_Number": 857, "Camera_Model": "Hik Vision", "Camera_Functionality": "PTZ", "Location": "Junction of Portobello Road and Tavistock Road", "Location_Area": "Portabello Road   ", "Video_Management_System": "Genetec", "Ward": "Colville", "Lat": 51.5181, "Long": -0.20665, "Eastings": 524528, "Northings": 181433, "Weblink": null, "Comments": null, "Last_Update_Date": 1691971200000, "Data_Custodian": "Sam Dickinson", "OBJECTID": 43, "_borough": "kensington-and-chelsea"}}, {"type": "Feature", "id": 44, "geometry": {"type": "Point", "coordinates": [-0.2063411121501826, 51.517549018639386]}, "properties": {"Camera_Number": 858, "Camera_Model": "Hik Vision", "Camera_Functionality": "PTZ", "Location": "Junction of Portobello Road and Lancaster Road", "Location_Area": "Portabello Road   ", "Video_Management_System": "Genetec", "Ward": "Colville", "Lat": 51.51755, "Long": -0.20637, "Eastings": 524549, "Northings": 181372, "Weblink": null, "Comments": null, "Last_Update_Date": 1691971200000, "Data_Custodian": "Sam Dickinson", "OBJECTID": 44, "_borough": "kensington-and-chelsea"}}, {"type": "Feature", "id": 45, "geometry": {"type": "Point", "coordinates": [-0.20568183932894313, 51.51672060708573]}, "properties": {"Camera_Number": 859, "Camera_Model": "Hik Vision", "Camera_Functionality": "PTZ", "Location": "Junction of 225 Portobello Road and Westbourne Park Road", "Location_Area": "Portabello Road   ", "Video_Management_System": "Genetec", "Ward": "Colville", "Lat": 51.51672, "Long": -0.2057, "Eastings": 524597, "Northings": 181281, "Weblink": null, "Comments": null, "Last_Update_Date": 1691971200000, "Data_Custodian": "Sam Dickinson", "OBJECTID": 45, "_borough": "kensington-and-chelsea"}}, {"type": "Feature", "id": 46, "geometry": {"type": "Point", "coordinates": [-0.20482092999442605, 51.51588910601464]}, "properties": {"Camera_Number": 860, "Camera_Model": "Invictus", "Camera_Functionality": "PTZ", "Location": "Junction of 184 Portobello Road and Talbot Road", "Location_Area": "Portabello Road   ", "Video_Management_System": "Genetec", "Ward": "Colville", "Lat": 51.51589, "Long": -0.20484, "Eastings": 524659, "Northings": 181190, "Weblink": null, "Comments": null, "Last_Update_Date": 1691971200000, "Data_Custodian": "Sam Dickinson", "OBJECTID": 46, "_borough": "kensington-and-chelsea"}}, {"type": "Feature", "id": 47, "geometry": {"type": "Point", "coordinates": [-0.20477532184766387, 51.51704845708455]}, "properties": {"Camera_Number": 861, "Camera_Model": "Hik Vision", "Camera_Functionality": "PTZ", "Location": "Junction of Westbourne Park Road and Basing Street", "Location_Area": "Portabello Road   ", "Video_Management_System": "Genetec", "Ward": "Colville", "Lat": 51.51705, "Long": -0.2048, "Eastings": 524659, "Northings": 181319, "Weblink": null, "Comments": null, "Last_Update_Date": 1691971200000, "Data_Custodian": "Sam Dickinson", "OBJECTID": 47, "_borough": "kensington-and-chelsea"}}, {"type": "Feature", "id": 48, "geometry": {"type": "Point", "coordinates": [-0.204541788880677, 51.5207858152161]}, "properties": {"Camera_Number": 862, "Camera_Model": "Preaditor", "Camera_Functionality": "PTZ", "Location": "147 Acklam Road", "Location_Area": "Portabello Road   ", "Video_Management_System": "Genetec", "Ward": "Golborne", "Lat": 51.52078, "Long": -0.20457, "Eastings": 524665, "Northings": 181735, "Weblink": null, "Comments": null, "Last_Update_Date": 1691971200000, "Data_Custodian": "Sam Dickinson", "OBJECTID": 48, "_borough": "kensington-and-chelsea"}}, {"type": "Feature", "id": 49, "geometry": {"type": "Point", "coordinates": [-0.20448145448399546, 51.51902233733602]}, "properties": {"Camera_Number": 863, "Camera_Model": "Hik Vision", "Camera_Functionality": "PTZ", "Location": "Junction of All Saints Road and Tavistock Road", "Location_Area": "Portabello Road   ", "Video_Management_System": "Genetec", "Ward": "Colville", "Lat": 51.519024, "Long": -0.204502, "Eastings": 524674, "Northings": 181539, "Weblink": null, "Comments": null, "Last_Update_Date": 1691971200000, "Data_Custodian": "Sam Dickinson", "OBJECTID": 49, "_borough": "kensington-and-chelsea"}}, {"type": "Feature", "id": 50, "geometry": {"type": "Point", "coordinates": [-0.20383548906506754, 51.51823363727674]}, "properties": {"Camera_Number": 864, "Camera_Model": "Preaditor", "Camera_Functionality": "PTZ", "Location": "Junction of All Saints Road and Lancaster Road", "Location_Area": "Portabello Road   ", "Video_Management_System": "Genetec", "Ward": "Colville", "Lat": 51.51826, "Long": -0.20376, "Eastings": 524721, "Northings": 181452, "Weblink": null, "Comments": null, "Last_Update_Date": 1691971200000, "Data_Custodian": "Sam Dickinson", "OBJECTID": 50, "_borough": "kensington-and-chelsea"}}, {"type": "Feature", "id": 51, "geometry": {"type": "Point", "coordinates": [-0.20370917785709428, 51.517769531531485]}, "properties": {"Camera_Number": 865, "Camera_Model": "Preaditor", "Camera_Functionality": "PTZ", "Location": "Junction of All Saints Road and St. Lukes Mews (building)", "Location_Area": "Portabello Road   ", "Video_Management_System": "Genetec", "Ward": "Colville", "Lat": 51.51777, "Long": -0.20373, "Eastings": 524731, "Northings": 181401, "Weblink": null, "Comments": null, "Last_Update_Date": 1691971200000, "Data_Custodian": "Sam Dickinson", "OBJECTID": 51, "_borough": "kensington-and-chelsea"}}, {"type": "Feature", "id": 52, "geometry": {"type": "Point", "coordinates": [-0.20228384317207596, 51.51659341349786]}, "properties": {"Camera_Number": 866, "Camera_Model": "Hik vision", "Camera_Functionality": "PTZ", "Location": "Junction of Powis Gardens and Talbot Road", "Location_Area": "Portabello Road   ", "Video_Management_System": "Genetec", "Ward": "Colville", "Lat": 51.51661, "Long": -0.2022, "Eastings": 524833, "Northings": 181273, "Weblink": null, "Comments": null, "Last_Update_Date": 1691971200000, "Data_Custodian": "Sam Dickinson", "OBJECTID": 52, "_borough": "kensington-and-chelsea"}}, {"type": "Feature", "id": 53, "geometry": {"type": "Point", "coordinates": [-0.2013720484197213, 51.517823646103714]}, "properties": {"Camera_Number": 867, "Camera_Model": "Preaditor", "Camera_Functionality": "PTZ", "Location": "Junction of 218 Westbourne Park Road & St Lukes Road", "Location_Area": "Portabello Road   ", "Video_Management_System": "Genetec", "Ward": "Colville", "Lat": 51.51782, "Long": -0.2014, "Eastings": 524893, "Northings": 181411, "Weblink": null, "Comments": null, "Last_Update_Date": 1691971200000, "Data_Custodian": "Sam Dickinson", "OBJECTID": 53, "_borough": "kensington-and-chelsea"}}, {"type": "Feature", "id": 54, "geometry": {"type": "Point", "coordinates": [-0.20298521835982258, 51.51968286560988]}, "properties": {"Camera_Number": 868, "Camera_Model": "Hik Vision", "Camera_Functionality": "PTZ", "Location": "Junction of St. Lukes Road and Tavistock Road", "Location_Area": "Portabello Road   ", "Video_Management_System": "Genetec", "Ward": "Colville", "Lat": 51.51968, "Long": -0.20301, "Eastings": 524776, "Northings": 181615, "Weblink": null, "Comments": null, "Last_Update_Date": 1691971200000, "Data_Custodian": "Sam Dickinson", "OBJECTID": 54, "_borough": "kensington-and-chelsea"}}, {"type": "Feature", "id": 55, "geometry": {"type": "Point", "coordinates": [-0.20429016947085116, 51.520952823611296]}, "properties": {"Camera_Number": 869, "Camera_Model": "Preaditor", "Camera_Functionality": "PTZ", "Location": "43 Aklam Road West Way Community Centre", "Location_Area": "Portabello Road   ", "Video_Management_System": "Genetec", "Ward": "Golborne", "Lat": 51.52095, "Long": -0.20432, "Eastings": 524682, "Northings": 181754, "Weblink": null, "Comments": null, "Last_Update_Date": 1691971200000, "Data_Custodian": "Sam Dickinson", "OBJECTID": 55, "_borough": "kensington-and-chelsea"}}, {"type": "Feature", "id": 56, "geometry": {"type": "Point", "coordinates": [-0.20796126701924394, 51.52236973693206]}, "properties": {"Camera_Number": 870, "Camera_Model": "Hik Vision", "Camera_Functionality": "PTZ", "Location": "Junction of Golborne and Wornington Road", "Location_Area": "Portabello Road   ", "Video_Management_System": "Genetec", "Ward": "Golborne", "Lat": 51.52242, "Long": -0.20798, "Eastings": 524423, "Northings": 181905, "Weblink": null, "Comments": null, "Last_Update_Date": 1691971200000, "Data_Custodian": "Sam Dickinson", "OBJECTID": 56, "_borough": "kensington-and-chelsea"}}, {"type": "Feature", "id": 57, "geometry": {"type": "Point", "coordinates": [-0.20967445324402795, 51.5211250470933]}, "properties": {"Camera_Number": 871, "Camera_Model": "Hik Vision", "Camera_Functionality": "PTZ", "Location": "Junction of Portobello Road and Golborne Road", "Location_Area": "Portabello Road   ", "Video_Management_System": "Genetec", "Ward": "Golborne", "Lat": 51.521127, "Long": -0.209698, "Eastings": 524308, "Northings": 181764, "Weblink": null, "Comments": null, "Last_Update_Date": 1691971200000, "Data_Custodian": "Sam Dickinson", "OBJECTID": 57, "_borough": "kensington-and-chelsea"}}, {"type": "Feature", "id": 58, "geometry": {"type": "Point", "coordinates": [-0.20318407632508317, 51.51648176908343]}, "properties": {"Camera_Number": 873, "Camera_Model": "Hik Vision", "Camera_Functionality": "PTZ", "Location": "Clyesdale Road", "Location_Area": "Portabello Road   ", "Video_Management_System": "Genetec", "Ward": "Golborne", "Lat": 51.51648, "Long": -0.20312, "Eastings": 524771, "Northings": 181259, "Weblink": null, "Comments": null, "Last_Update_Date": 1691971200000, "Data_Custodian": "Sam Dickinson", "OBJECTID": 58, "_borough": "kensington-and-chelsea"}}, {"type": "Feature", "id": 59, "geometry": {"type": "Point", "coordinates": [-0.20643908146377235, 51.51945695302707]}, "properties": {"Camera_Number": 876, "Camera_Model": "Hik Vision", "Camera_Functionality": "PTZ", "Location": "Cabinet based pole junction of Acklam Rd & Blagrove Rd", "Location_Area": "Portabello Road   ", "Video_Management_System": "Genetec", "Ward": "Golborne", "Lat": 51.519456, "Long": -0.206468, "Eastings": 524537, "Northings": 181584, "Weblink": null, "Comments": null, "Last_Update_Date": 1691971200000, "Data_Custodian": "Sam Dickinson", "OBJECTID": 59, "_borough": "kensington-and-chelsea"}}, {"type": "Feature", "id": 60, "geometry": {"type": "Point", "coordinates": [-0.20909993050562975, 51.52584639315029]}, "properties": {"Camera_Number": 7801, "Camera_Model": "Hik Vision", "Camera_Functionality": "PTZ", "Location": "Emslie Horniman Pleasance Park Kensal Rd W10 6LR", "Location_Area": "Emslie Horniman Park ", "Video_Management_System": "Genetec", "Ward": "Golborne", "Lat": 51.525849, "Long": -0.209118, "Eastings": 524335, "Northings": 182290, "Weblink": null, "Comments": null, "Last_Update_Date": 1691971200000, "Data_Custodian": "Sam Dickinson", "OBJECTID": 60, "_borough": "kensington-and-chelsea"}}, {"type": "Feature", "id": 61, "geometry": {"type": "Point", "coordinates": [-0.20909957767656517, 51.52585538037804]}, "properties": {"Camera_Number": 7802, "Camera_Model": "Hik Vision", "Camera_Functionality": "PTZ", "Location": "Emslie Horniman Pleasance Park Kensal Rd W10 6LR", "Location_Area": "Emslie Horniman Park ", "Video_Management_System": "Genetec", "Ward": "Golborne", "Lat": 51.525851, "Long": -0.209119, "Eastings": 524335, "Northings": 182291, "Weblink": null, "Comments": null, "Last_Update_Date": 1691971200000, "Data_Custodian": "Sam Dickinson", "OBJECTID": 61, "_borough": "kensington-and-chelsea"}}, {"type": "Feature", "id": 62, "geometry": {"type": "Point", "coordinates": [-0.21975126550595, 51.52072985098473]}, "properties": {"Camera_Number": 7803, "Camera_Model": "Hik Vision", "Camera_Functionality": "PTZ", "Location": "Kensington Memorial Park Off St Helens Gardens W10 5DR", "Location_Area": "Kensington Memorial  ", "Video_Management_System": "Genetec", "Ward": "Dalgarno", "Lat": 51.52073, "Long": -0.21977, "Eastings": 523610, "Northings": 181703, "Weblink": null, "Comments": null, "Last_Update_Date": 1691971200000, "Data_Custodian": "Sam Dickinson", "OBJECTID": 62, "_borough": "kensington-and-chelsea"}}, {"type": "Feature", "id": 63, "geometry": {"type": "Point", "coordinates": [-0.22641137471670936, 51.52219759592559]}, "properties": {"Camera_Number": 8401, "Camera_Model": "Hik Vision", "Camera_Functionality": "Fixed", "Location": "Cabinet opposite Addlestone House (Sutton Way, Dalgarno Gardens)", "Location_Area": "Dalgarno Estate ", "Video_Management_System": "Genetec", "Ward": "Dalgarno", "Lat": 51.522196, "Long": -0.2264355, "Eastings": 523144, "Northings": 181855, "Weblink": null, "Comments": null, "Last_Update_Date": 1691971200000, "Data_Custodian": "Sam Dickinson", "OBJECTID": 63, "_borough": "kensington-and-chelsea"}}, {"type": "Feature", "id": 64, "geometry": {"type": "Point", "coordinates": [-0.22606317221926986, 51.52225527997865]}, "properties": {"Camera_Number": 8402, "Camera_Model": "Hik Vision", "Camera_Functionality": "Fixed", "Location": "Cabinet opposite Danes House", "Location_Area": "Dalgarno Estate ", "Video_Management_System": "Genetec", "Ward": "Dalgarno", "Lat": 51.522254, "Long": -0.2260873, "Eastings": 523168, "Northings": 181862, "Weblink": null, "Comments": null, "Last_Update_Date": 1691971200000, "Data_Custodian": "Sam Dickinson", "OBJECTID": 64, "_borough": "kensington-and-chelsea"}}, {"type": "Feature", "id": 65, "geometry": {"type": "Point", "coordinates": [-0.2246081805887928, 51.5226019688195]}, "properties": {"Camera_Number": 8403, "Camera_Model": "Hik Vision", "Camera_Functionality": "Fixed", "Location": "Cabinet opposite Yarrow House", "Location_Area": "Dalgarno Estate ", "Video_Management_System": "Genetec", "Ward": "Dalgarno", "Lat": 51.5226, "Long": -0.2246323, "Eastings": 523268, "Northings": 181903, "Weblink": null, "Comments": null, "Last_Update_Date": 1691971200000, "Data_Custodian": "Sam Dickinson", "OBJECTID": 65, "_borough": "kensington-and-chelsea"}}, {"type": "Feature", "id": 66, "geometry": {"type": "Point", "coordinates": [-0.22537873707479306, 51.52428625119893]}, "properties": {"Camera_Number": 8404, "Camera_Model": "Hik Vision", "Camera_Functionality": "Fixed", "Location": "Cabinet based pole opposite Yeovil House", "Location_Area": "Dalgarno Estate ", "Video_Management_System": "Genetec", "Ward": "Dalgarno", "Lat": 51.524285, "Long": -0.2254029, "Eastings": 523210, "Northings": 182089, "Weblink": null, "Comments": null, "Last_Update_Date": 1691971200000, "Data_Custodian": "Sam Dickinson", "OBJECTID": 66, "_borough": "kensington-and-chelsea"}}, {"type": "Feature", "id": 67, "geometry": {"type": "Point", "coordinates": [-0.22627477657753167, 51.52422786000505]}, "properties": {"Camera_Number": 8405, "Camera_Model": "Hik Vision", "Camera_Functionality": "Fixed", "Location": "Cabinet based pole opposite Letchmore House", "Location_Area": "Dalgarno Estate ", "Video_Management_System": "Genetec", "Ward": "Dalgarno", "Lat": 51.524226, "Long": -0.2262989, "Eastings": 523148, "Northings": 182081, "Weblink": null, "Comments": null, "Last_Update_Date": 1691971200000, "Data_Custodian": "Sam Dickinson", "OBJECTID": 67, "_borough": "kensington-and-chelsea"}}, {"type": "Feature", "id": 68, "geometry": {"type": "Point", "coordinates": [-0.2243175058976887, 51.524144298238824]}, "properties": {"Camera_Number": 8406, "Camera_Model": "Hik Vision", "Camera_Functionality": "Fixed", "Location": "Peabody Estate, Dalgarno Gardens - Block V", "Location_Area": "Dalgarno Estate ", "Video_Management_System": "Genetec", "Ward": "Dalgarno", "Lat": 51.524143, "Long": -0.2243417, "Eastings": 523284, "Northings": 182075, "Weblink": null, "Comments": null, "Last_Update_Date": 1691971200000, "Data_Custodian": "Sam Dickinson", "OBJECTID": 68, "_borough": "kensington-and-chelsea"}}, {"type": "Feature", "id": 69, "geometry": {"type": "Point", "coordinates": [-0.22402265440747765, 51.52394199809271]}, "properties": {"Camera_Number": 8407, "Camera_Model": "Hik Vision", "Camera_Functionality": "Fixed", "Location": "Peabody Estate, Dalgarno Gardens - Block T", "Location_Area": "Dalgarno Estate ", "Video_Management_System": "Genetec", "Ward": "Dalgarno", "Lat": 51.52394, "Long": -0.2240469, "Eastings": 523305, "Northings": 182053, "Weblink": null, "Comments": null, "Last_Update_Date": 1691971200000, "Data_Custodian": "Sam Dickinson", "OBJECTID": 69, "_borough": "kensington-and-chelsea"}}, {"type": "Feature", "id": 70, "geometry": {"type": "Point", "coordinates": [-0.22429387547481022, 51.523640354681284]}, "properties": {"Camera_Number": 8408, "Camera_Model": "Hik Vision", "Camera_Functionality": "Fixed", "Location": "Peabody Estate, Dalgarno Gardens - Block R (W)", "Location_Area": "Dalgarno Estate ", "Video_Management_System": "Genetec", "Ward": "Dalgarno", "Lat": 51.523639, "Long": -0.2243181, "Eastings": 523287, "Northings": 182019, "Weblink": null, "Comments": null, "Last_Update_Date": 1691971200000, "Data_Custodian": "Sam Dickinson", "OBJECTID": 70, "_borough": "kensington-and-chelsea"}}, {"type": "Feature", "id": 71, "geometry": {"type": "Point", "coordinates": [-0.2238325034426028, 51.52364236361118]}, "properties": {"Camera_Number": 8409, "Camera_Model": "Hik Vision", "Camera_Functionality": "Fixed", "Location": "Peabody Estate, Dalgarno Gardens - Block R (W)", "Location_Area": "Dalgarno Estate ", "Video_Management_System": "Genetec", "Ward": "Dalgarno", "Lat": 51.523641, "Long": -0.2238567, "Eastings": 523319, "Northings": 182020, "Weblink": null, "Comments": null, "Last_Update_Date": 1691971200000, "Data_Custodian": "Sam Dickinson", "OBJECTID": 71, "_borough": "kensington-and-chelsea"}}, {"type": "Feature", "id": 72, "geometry": {"type": "Point", "coordinates": [-0.2237277461661861, 51.523370999485195]}, "properties": {"Camera_Number": 8410, "Camera_Model": "Hik Vision", "Camera_Functionality": "Fixed", "Location": "Peabody Estate, Dalgarno Gardens - Block M", "Location_Area": "Dalgarno Estate ", "Video_Management_System": "Genetec", "Ward": "Dalgarno", "Lat": 51.523369, "Long": -0.2237519, "Eastings": 523327, "Northings": 181990, "Weblink": null, "Comments": null, "Last_Update_Date": 1691971200000, "Data_Custodian": "Sam Dickinson", "OBJECTID": 72, "_borough": "kensington-and-chelsea"}}, {"type": "Feature", "id": 73, "geometry": {"type": "Point", "coordinates": [-0.22280955906737715, 51.5232581762127]}, "properties": {"Camera_Number": 8411, "Camera_Model": "Hik Vision", "Camera_Functionality": "Fixed", "Location": "Peabody Estate, Dalgarno Gardens - Block K", "Location_Area": "Dalgarno Estate ", "Video_Management_System": "Genetec", "Ward": "Dalgarno", "Lat": 51.523257, "Long": -0.2228338, "Eastings": 523391, "Northings": 181979, "Weblink": null, "Comments": null, "Last_Update_Date": 1691971200000, "Data_Custodian": "Sam Dickinson", "OBJECTID": 73, "_borough": "kensington-and-chelsea"}}, {"type": "Feature", "id": 74, "geometry": {"type": "Point", "coordinates": [-0.22406324027261576, 51.52289947010087]}, "properties": {"Camera_Number": 8412, "Camera_Model": "Hik Vision", "Camera_Functionality": "Fixed", "Location": "Peabody Estate, Dalgarno Gardens - Block G", "Location_Area": "Dalgarno Estate ", "Video_Management_System": "Genetec", "Ward": "Dalgarno", "Lat": 51.522898, "Long": -0.2240874, "Eastings": 523305, "Northings": 181937, "Weblink": null, "Comments": null, "Last_Update_Date": 1691971200000, "Data_Custodian": "Sam Dickinson", "OBJECTID": 74, "_borough": "kensington-and-chelsea"}}, {"type": "Feature", "id": 75, "geometry": {"type": "Point", "coordinates": [-0.22326206509533422, 51.522743458449135]}, "properties": {"Camera_Number": 8413, "Camera_Model": "Hik Vision", "Camera_Functionality": "Fixed", "Location": "Peabody Estate, Dalgarno Gardens - Block C", "Location_Area": "Dalgarno Estate ", "Video_Management_System": "Genetec", "Ward": "Dalgarno", "Lat": 51.522742, "Long": -0.2232863, "Eastings": 523361, "Northings": 181921, "Weblink": null, "Comments": null, "Last_Update_Date": 1691971200000, "Data_Custodian": "Sam Dickinson", "OBJECTID": 75, "_borough": "kensington-and-chelsea"}}, {"type": "Feature", "id": 76, "geometry": {"type": "Point", "coordinates": [-0.222771693899712, 51.523860107263]}, "properties": {"Camera_Number": 8414, "Camera_Model": "Hik Vision", "Camera_Functionality": "Fixed", "Location": "Sunbeam Crescent & Shrewsbury Street", "Location_Area": "Dalgarno Estate ", "Video_Management_System": "Genetec", "Ward": "Dalgarno", "Lat": 51.523858, "Long": -0.2227959, "Eastings": 523392, "Northings": 182046, "Weblink": null, "Comments": null, "Last_Update_Date": 1691971200000, "Data_Custodian": "Sam Dickinson", "OBJECTID": 76, "_borough": "kensington-and-chelsea"}}, {"type": "Feature", "id": 77, "geometry": {"type": "Point", "coordinates": [-0.22118653545974398, 51.52347638067887]}, "properties": {"Camera_Number": 8415, "Camera_Model": "Hik Vision", "Camera_Functionality": "Fixed", "Location": "Rootes Drive & Shrewsbury Street", "Location_Area": "Dalgarno Estate ", "Video_Management_System": "Genetec", "Ward": "Dalgarno", "Lat": 51.523475, "Long": -0.2212108, "Eastings": 523503, "Northings": 182006, "Weblink": null, "Comments": null, "Last_Update_Date": 1691971200000, "Data_Custodian": "Sam Dickinson", "OBJECTID": 77, "_borough": "kensington-and-chelsea"}}, {"type": "Feature", "id": 78, "geometry": {"type": "Point", "coordinates": [-0.21956036628299158, 51.5241441452303]}, "properties": {"Camera_Number": 8416, "Camera_Model": "Hik Vision", "Camera_Functionality": "Fixed", "Location": "Notting Barn Road & Salters Road", "Location_Area": "Dalgarno Estate ", "Video_Management_System": "Genetec", "Ward": "Dalgarno", "Lat": 51.524142, "Long": -0.2195847, "Eastings": 523614, "Northings": 182083, "Weblink": null, "Comments": null, "Last_Update_Date": 1691971200000, "Data_Custodian": "Sam Dickinson", "OBJECTID": 78, "_borough": "kensington-and-chelsea"}}, {"type": "Feature", "id": 79, "geometry": {"type": "Point", "coordinates": [-0.21776264684064472, 51.5240359163923]}, "properties": {"Camera_Number": 8417, "Camera_Model": "Hik Vision", "Camera_Functionality": "Fixed", "Location": "Barlby Gardens", "Location_Area": "Dalgarno Estate ", "Video_Management_System": "Genetec", "Ward": "Dalgarno", "Lat": 51.524034, "Long": -0.217787, "Eastings": 523739, "Northings": 182074, "Weblink": null, "Comments": null, "Last_Update_Date": 1691971200000, "Data_Custodian": "Sam Dickinson", "OBJECTID": 79, "_borough": "kensington-and-chelsea"}}, {"type": "Feature", "id": 169, "geometry": {"type": "Point", "coordinates": [-0.09688004306661042, 51.49033869749792]}, "properties": {"OBJECTID": 169, "FULL_ID": "08/880133", "SITE_TYPE": "TB", "LOCATION": "0011000133 - WALWORTH ROAD - LARCOM STREET", "SITE_TYPE_DESC": "CCTV Borough Camera (TB)", "EASTING": 532222, "NORTHING": 178538, "_borough": "lambeth"}}, {"type": "Feature", "id": 170, "geometry": {"type": "Point", "coordinates": [-0.11076299047304898, 51.50296416303931]}, "properties": {"OBJECTID": 170, "FULL_ID": "09/880156", "SITE_TYPE": "TB", "LOCATION": "WATERLOO ROAD - WATERLOO STATION", "SITE_TYPE_DESC": "CCTV Borough Camera (TB)", "EASTING": 531222, "NORTHING": 179917, "_borough": "lambeth"}}, {"type": "Feature", "id": 171, "geometry": {"type": "Point", "coordinates": [-0.11515407574651797, 51.4632240236303]}, "properties": {"OBJECTID": 171, "FULL_ID": "09/880008", "SITE_TYPE": "TB", "LOCATION": "0011100008 - A23 BRIXTON ROAD / B223 ATLANTIC ROAD", "SITE_TYPE_DESC": "CCTV Borough Camera (TB)", "EASTING": 531031, "NORTHING": 175490, "_borough": "lambeth"}}, {"type": "Feature", "id": 172, "geometry": {"type": "Point", "coordinates": [-0.11288355233666447, 51.463124538080834]}, "properties": {"OBJECTID": 172, "FULL_ID": "09/880009", "SITE_TYPE": "TB", "LOCATION": "0011100009 - BRIXTON STATION ROAD / POPES ROAD", "SITE_TYPE_DESC": "CCTV Borough Camera (TB)", "EASTING": 531189, "NORTHING": 175483, "_borough": "lambeth"}}, {"type": "Feature", "id": 173, "geometry": {"type": "Point", "coordinates": [-0.11446561736143292, 51.46386043129918]}, "properties": {"OBJECTID": 173, "FULL_ID": "09/880010", "SITE_TYPE": "TB", "LOCATION": "0011100010 - A23 BRIXTON ROAD / OPP FERNDALE ROAD", "SITE_TYPE_DESC": "CCTV Borough Camera (TB)", "EASTING": 531077, "NORTHING": 175562, "_borough": "lambeth"}}, {"type": "Feature", "id": 174, "geometry": {"type": "Point", "coordinates": [-0.11432416720758504, 51.4648473630993]}, "properties": {"OBJECTID": 174, "FULL_ID": "09/880011", "SITE_TYPE": "TB", "LOCATION": "0011100011 - A203 STOCKWELL ROAD / A23 BRIXTON ROAD", "SITE_TYPE_DESC": "CCTV Borough Camera (TB)", "EASTING": 531084, "NORTHING": 175672, "_borough": "lambeth"}}, {"type": "Feature", "id": 175, "geometry": {"type": "Point", "coordinates": [-0.10882138551043954, 51.441934885898654]}, "properties": {"OBJECTID": 175, "FULL_ID": "09/607022", "SITE_TYPE": "UX", "LOCATION": "TULSE HILL BY KNOWLES CLOSE", "SITE_TYPE_DESC": "Ultra Low Emission Zone Camera (UX)", "EASTING": 531532, "NORTHING": 173134, "_borough": "lambeth"}}, {"type": "Feature", "id": 176, "geometry": {"type": "Point", "coordinates": [-0.1360701544243233, 51.449484811948636]}, "properties": {"OBJECTID": 176, "FULL_ID": "09/607023", "SITE_TYPE": "UX", "LOCATION": "POYNDERS ROAD BY PLUMMER ROAD", "SITE_TYPE_DESC": "Ultra Low Emission Zone Camera (UX)", "EASTING": 529617, "NORTHING": 173925, "_borough": "lambeth"}}, {"type": "Feature", "id": 177, "geometry": {"type": "Point", "coordinates": [-0.13693653243596532, 51.44976836818081]}, "properties": {"OBJECTID": 177, "FULL_ID": "09/607024", "SITE_TYPE": "UX", "LOCATION": "CLARENCE AVENUE BY POYNDERS ROAD", "SITE_TYPE_DESC": "Ultra Low Emission Zone Camera (UX)", "EASTING": 529556, "NORTHING": 173955, "_borough": "lambeth"}}, {"type": "Feature", "id": 178, "geometry": {"type": "Point", "coordinates": [-0.13804889446368895, 51.45001985421317]}, "properties": {"OBJECTID": 178, "FULL_ID": "09/607025", "SITE_TYPE": "UX", "LOCATION": "RODENHURST ROAD BY POYNDERS ROAD", "SITE_TYPE_DESC": "Ultra Low Emission Zone Camera (UX)", "EASTING": 529478, "NORTHING": 173981, "_borough": "lambeth"}}, {"type": "Feature", "id": 179, "geometry": {"type": "Point", "coordinates": [-0.12628790148061067, 51.48454431348443]}, "properties": {"OBJECTID": 179, "FULL_ID": "09/607030", "SITE_TYPE": "UX", "LOCATION": "A3205 NINE ELMS LANE WESTBOUND BY A3036 WANDSWORTH ROAD (ULEZ 577.1B)", "SITE_TYPE_DESC": "Ultra Low Emission Zone Camera (UX)", "EASTING": 530197, "NORTHING": 177841, "_borough": "lambeth"}}, {"type": "Feature", "id": 180, "geometry": {"type": "Point", "coordinates": [-0.13956706345577824, 51.46153667669713]}, "properties": {"OBJECTID": 180, "FULL_ID": "09/608800", "SITE_TYPE": "UX", "LOCATION": "THE PAVEMENT BY B303 CLAPHAM COMMON (ULEZ 2006)", "SITE_TYPE_DESC": "Ultra Low Emission Zone Camera (UX)", "EASTING": 529340, "NORTHING": 175259, "_borough": "lambeth"}}, {"type": "Feature", "id": 181, "geometry": {"type": "Point", "coordinates": [-0.13154570319707173, 51.427398424038664]}, "properties": {"OBJECTID": 181, "FULL_ID": "09/880081", "SITE_TYPE": "TB", "LOCATION": "0011100081 - A214 AMBLESIDE AVENUE / A23 STREATHAM HIGH ROAD", "SITE_TYPE_DESC": "CCTV Borough Camera (TB)", "EASTING": 529994, "NORTHING": 171477, "_borough": "lambeth"}}, {"type": "Feature", "id": 182, "geometry": {"type": "Point", "coordinates": [-0.12601109957953802, 51.43750784069239]}, "properties": {"OBJECTID": 182, "FULL_ID": "09/880082", "SITE_TYPE": "TB", "LOCATION": "0011100082 - LEIGHAM COURT ROAD / EAST OF A23 STREATHAM HIGH ROAD", "SITE_TYPE_DESC": "CCTV Borough Camera (TB)", "EASTING": 530350, "NORTHING": 172611, "_borough": "lambeth"}}, {"type": "Feature", "id": 183, "geometry": {"type": "Point", "coordinates": [-0.11642798950228461, 51.502560673047746]}, "properties": {"OBJECTID": 183, "FULL_ID": "09/607031", "SITE_TYPE": "UX", "LOCATION": "A3200 YORK ROAD NORTHEAST BOUND BY  CHICHELEY STREET (ULEZ 707A)", "SITE_TYPE_DESC": "Ultra Low Emission Zone Camera (UX)", "EASTING": 530830, "NORTHING": 179862, "_borough": "lambeth"}}, {"type": "Feature", "id": 184, "geometry": {"type": "Point", "coordinates": [-0.11613258560108954, 51.50273578381191]}, "properties": {"OBJECTID": 184, "FULL_ID": "09/607032", "SITE_TYPE": "UX", "LOCATION": "A3200 YORK ROAD SOUTHWEST BOUND BY CHICHELEY STREET (ULEZ 707B)", "SITE_TYPE_DESC": "Ultra Low Emission Zone Camera (UX)", "EASTING": 530850, "NORTHING": 179882, "_borough": "lambeth"}}, {"type": "Feature", "id": 185, "geometry": {"type": "Point", "coordinates": [-0.1130966809547702, 51.50507006404505]}, "properties": {"OBJECTID": 185, "FULL_ID": "09/607033", "SITE_TYPE": "UX", "LOCATION": "A3200 STAMFORD STREET BY WATERLOO BRIDGE (ULEZ 710)", "SITE_TYPE_DESC": "Ultra Low Emission Zone Camera (UX)", "EASTING": 531054, "NORTHING": 180147, "_borough": "lambeth"}}, {"type": "Feature", "id": 186, "geometry": {"type": "Point", "coordinates": [-0.1073810268171801, 51.47050882409962]}, "properties": {"OBJECTID": 186, "FULL_ID": "09/607034", "SITE_TYPE": "UX", "LOCATION": "LILFORD ROAD BY LOUGHBOROUGH ROAD (ULEZ 886)", "SITE_TYPE_DESC": "Ultra Low Emission Zone Camera (UX)", "EASTING": 531550, "NORTHING": 176314, "_borough": "lambeth"}}, {"type": "Feature", "id": 187, "geometry": {"type": "Point", "coordinates": [-0.09863318509505006, 51.46827193551671]}, "properties": {"OBJECTID": 187, "FULL_ID": "09/607035", "SITE_TYPE": "UX", "LOCATION": "A2217 COLDHARBOUR LANE BY NORTHLANDS STREET (ULEZ 888)", "SITE_TYPE_DESC": "Ultra Low Emission Zone Camera (UX)", "EASTING": 532164, "NORTHING": 176081, "_borough": "lambeth"}}, {"type": "Feature", "id": 188, "geometry": {"type": "Point", "coordinates": [-0.1142725440862432, 51.46470264785076]}, "properties": {"OBJECTID": 188, "FULL_ID": "09/607036", "SITE_TYPE": "UX", "LOCATION": "A23 BRIXTON ROAD NORTHBOUND BY A203 STOCKWELL ROAD (ULEZ 906A)", "SITE_TYPE_DESC": "Ultra Low Emission Zone Camera (UX)", "EASTING": 531088, "NORTHING": 175656, "_borough": "lambeth"}}, {"type": "Feature", "id": 189, "geometry": {"type": "Point", "coordinates": [-0.11397738903456554, 51.464877754722124]}, "properties": {"OBJECTID": 189, "FULL_ID": "09/607037", "SITE_TYPE": "UX", "LOCATION": "GRESHAM ROAD NORTHEAST BOUND BY A23 BRIXTON ROAD (ULEZ 906B)", "SITE_TYPE_DESC": "Ultra Low Emission Zone Camera (UX)", "EASTING": 531108, "NORTHING": 175676, "_borough": "lambeth"}}, {"type": "Feature", "id": 190, "geometry": {"type": "Point", "coordinates": [-0.10749147955044076, 51.49011473603478]}, "properties": {"OBJECTID": 190, "FULL_ID": "08/602634", "SITE_TYPE": "UX", "LOCATION": "KENNINGTON LANE - NEWINGTON BUTTS (ULEZ 2634)", "SITE_TYPE_DESC": "Ultra Low Emission Zone Camera (UX)", "EASTING": 531486, "NORTHING": 178494, "_borough": "lambeth"}}, {"type": "Feature", "id": 191, "geometry": {"type": "Point", "coordinates": [-0.0891382572501702, 51.44154360392882]}, "properties": {"OBJECTID": 191, "FULL_ID": "08/607002", "SITE_TYPE": "UX", "LOCATION": "GALLERY ROAD BY THURLOW PARK ROAD", "SITE_TYPE_DESC": "Ultra Low Emission Zone Camera (UX)", "EASTING": 532901, "NORTHING": 173126, "_borough": "lambeth"}}, {"type": "Feature", "id": 192, "geometry": {"type": "Point", "coordinates": [-0.12258429142594766, 51.47265971504766]}, "properties": {"OBJECTID": 192, "FULL_ID": "09/880012", "SITE_TYPE": "TB", "LOCATION": "0011100012 - A3 CLAPHAM ROAD / BINFIELD ROAD (STOCKWELL TUBE)", "SITE_TYPE_DESC": "CCTV Borough Camera (TB)", "EASTING": 530488, "NORTHING": 176526, "_borough": "lambeth"}}, {"type": "Feature", "id": 193, "geometry": {"type": "Point", "coordinates": [-0.10759331669250853, 51.46294031862571]}, "properties": {"OBJECTID": 193, "FULL_ID": "09/880015", "SITE_TYPE": "TB", "LOCATION": "0011100015 - A2217 COLDHARBOUR LANE / OPP GRESHAM ROAD", "SITE_TYPE_DESC": "CCTV Borough Camera (TB)", "EASTING": 531557, "NORTHING": 175472, "_borough": "lambeth"}}, {"type": "Feature", "id": 194, "geometry": {"type": "Point", "coordinates": [-0.10288889357037788, 51.46459988119143]}, "properties": {"OBJECTID": 194, "FULL_ID": "09/880016", "SITE_TYPE": "TB", "LOCATION": "0011100016 - A2217 COLDHARBOUR LANE / SHAKESPEARE ROAD", "SITE_TYPE_DESC": "CCTV Borough Camera (TB)", "EASTING": 531879, "NORTHING": 175665, "_borough": "lambeth"}}, {"type": "Feature", "id": 195, "geometry": {"type": "Point", "coordinates": [-0.10317955658337241, 51.46557581108866]}, "properties": {"OBJECTID": 195, "FULL_ID": "09/880017", "SITE_TYPE": "TB", "LOCATION": "0011100017 - A2217 COLDHARBOUR LANE / LOUGHBOROUGH ROAD (LOUGHBOROUGH JUNCTION)", "SITE_TYPE_DESC": "CCTV Borough Camera (TB)", "EASTING": 531856, "NORTHING": 175773, "_borough": "lambeth"}}, {"type": "Feature", "id": 196, "geometry": {"type": "Point", "coordinates": [-0.10163978245299543, 51.4662523235523]}, "properties": {"OBJECTID": 196, "FULL_ID": "09/880018", "SITE_TYPE": "TB", "LOCATION": "0011100018 - A2217 COLDHARBOUR LANE / OPP HERNE HILL ROAD (LOUGHBOROUGH JUNCTION)", "SITE_TYPE_DESC": "CCTV Borough Camera (TB)", "EASTING": 531961, "NORTHING": 175851, "_borough": "lambeth"}}, {"type": "Feature", "id": 197, "geometry": {"type": "Point", "coordinates": [-0.1200331512128886, 51.47447133505981]}, "properties": {"OBJECTID": 197, "FULL_ID": "09/880019", "SITE_TYPE": "TB", "LOCATION": "0011100019 - A3 CLAPHAM ROAD / STOCKWELL PARK ROAD", "SITE_TYPE_DESC": "CCTV Borough Camera (TB)", "EASTING": 530660, "NORTHING": 176732, "_borough": "lambeth"}}, {"type": "Feature", "id": 198, "geometry": {"type": "Point", "coordinates": [-0.12550336991261324, 51.47381251464027]}, "properties": {"OBJECTID": 198, "FULL_ID": "09/880020", "SITE_TYPE": "TB", "LOCATION": "0011100020 - SANDHAM COURT - BINFIELD ROAD", "SITE_TYPE_DESC": "CCTV Borough Camera (TB)", "EASTING": 530282, "NORTHING": 176649, "_borough": "lambeth"}}, {"type": "Feature", "id": 199, "geometry": {"type": "Point", "coordinates": [-0.11367516867562086, 51.486878061526546]}, "properties": {"OBJECTID": 199, "FULL_ID": "09/608801", "SITE_TYPE": "UX", "LOCATION": "KENNINGTON LANE BY MONTFORD PLACE (ULEZ 2614)", "SITE_TYPE_DESC": "Ultra Low Emission Zone Camera (UX)", "EASTING": 531066, "NORTHING": 178123, "_borough": "lambeth"}}, {"type": "Feature", "id": 200, "geometry": {"type": "Point", "coordinates": [-0.09654398416084696, 51.456889055729114]}, "properties": {"OBJECTID": 200, "FULL_ID": "09/608802", "SITE_TYPE": "UX", "LOCATION": "HERNE HILL CAMERA A BY FRANKFURT ROAD (ULEZ 2066A)", "SITE_TYPE_DESC": "Ultra Low Emission Zone Camera (UX)", "EASTING": 532342, "NORTHING": 174819, "_borough": "lambeth"}}, {"type": "Feature", "id": 201, "geometry": {"type": "Point", "coordinates": [-0.09624881358134782, 51.45706411792125]}, "properties": {"OBJECTID": 201, "FULL_ID": "09/608803", "SITE_TYPE": "UX", "LOCATION": "HERNE HILL CAMERA B BY FRANKFURT ROAD (ULEZ 2066B)", "SITE_TYPE_DESC": "Ultra Low Emission Zone Camera (UX)", "EASTING": 532362, "NORTHING": 174839, "_borough": "lambeth"}}, {"type": "Feature", "id": 202, "geometry": {"type": "Point", "coordinates": [-0.10312275188988397, 51.46555690613751]}, "properties": {"OBJECTID": 202, "FULL_ID": "09/608842", "SITE_TYPE": "UX", "LOCATION": "LOUGHBOROUGH ROAD CAMERA A BY A2217 COLDHARBOUR LANE (ULEZ 856A)", "SITE_TYPE_DESC": "Ultra Low Emission Zone Camera (UX)", "EASTING": 531860, "NORTHING": 175771, "_borough": "lambeth"}}, {"type": "Feature", "id": 203, "geometry": {"type": "Point", "coordinates": [-0.10282754838786896, 51.46573198489365]}, "properties": {"OBJECTID": 203, "FULL_ID": "09/608843", "SITE_TYPE": "UX", "LOCATION": "LOUGHBOROUGH ROAD CAMERA B BY A2217 COLDHARBOUR LANE (ULEZ 856B)", "SITE_TYPE_DESC": "Ultra Low Emission Zone Camera (UX)", "EASTING": 531880, "NORTHING": 175791, "_borough": "lambeth"}}, {"type": "Feature", "id": 204, "geometry": {"type": "Point", "coordinates": [-0.10282754838786896, 51.46573198489365]}, "properties": {"OBJECTID": 204, "FULL_ID": "09/608844", "SITE_TYPE": "UX", "LOCATION": "LOUGHBOROUGH ROAD CAMERA C BY A2217 COLDHARBOUR LANE (ULEZ 856C)", "SITE_TYPE_DESC": "Ultra Low Emission Zone Camera (UX)", "EASTING": 531880, "NORTHING": 175791, "_borough": "lambeth"}}, {"type": "Feature", "id": 205, "geometry": {"type": "Point", "coordinates": [-0.11168352983933763, 51.44475983525583]}, "properties": {"OBJECTID": 205, "FULL_ID": "09/608845", "SITE_TYPE": "UX", "LOCATION": "A204 TULSE HILL CAMERA A BY UPPER TULSE HILL  (ULEZ 874,1A)", "SITE_TYPE_DESC": "Ultra Low Emission Zone Camera (UX)", "EASTING": 531325, "NORTHING": 173443, "_borough": "lambeth"}}, {"type": "Feature", "id": 206, "geometry": {"type": "Point", "coordinates": [-0.11138849541977941, 51.44493493742511]}, "properties": {"OBJECTID": 206, "FULL_ID": "09/608846", "SITE_TYPE": "UX", "LOCATION": "A204 TULSE HILL CAMERA B BY UPPER TULSE HILL  (ULEZ 874,1B)", "SITE_TYPE_DESC": "Ultra Low Emission Zone Camera (UX)", "EASTING": 531345, "NORTHING": 173463, "_borough": "lambeth"}}, {"type": "Feature", "id": 207, "geometry": {"type": "Point", "coordinates": [-0.10698581602237893, 51.47762469643376]}, "properties": {"OBJECTID": 207, "FULL_ID": "09/608847", "SITE_TYPE": "UX", "LOCATION": "FOXLEY ROAD BY VASSALL ROAD (ULEZ 833)", "SITE_TYPE_DESC": "Ultra Low Emission Zone Camera (UX)", "EASTING": 531557, "NORTHING": 177106, "_borough": "lambeth"}}, {"type": "Feature", "id": 208, "geometry": {"type": "Point", "coordinates": [-0.1195418431403327, 51.46890597491813]}, "properties": {"OBJECTID": 208, "FULL_ID": "09/608848", "SITE_TYPE": "UX", "LOCATION": "STOCKWELL ROAD BY SIDNEY ROAD (ULEZ 762)", "SITE_TYPE_DESC": "Ultra Low Emission Zone Camera (UX)", "EASTING": 530710, "NORTHING": 176114, "_borough": "lambeth"}}, {"type": "Feature", "id": 209, "geometry": {"type": "Point", "coordinates": [-0.11794092017723963, 51.460570971642994]}, "properties": {"OBJECTID": 209, "FULL_ID": "09/608849", "SITE_TYPE": "UX", "LOCATION": "A2217 ACRE LANE CAMERA A BY PORDEN ROAD (ULEZ 763A)", "SITE_TYPE_DESC": "Ultra Low Emission Zone Camera (UX)", "EASTING": 530845, "NORTHING": 175190, "_borough": "lambeth"}}, {"type": "Feature", "id": 210, "geometry": {"type": "Point", "coordinates": [-0.11764580676655799, 51.460746087875755]}, "properties": {"OBJECTID": 210, "FULL_ID": "09/608850", "SITE_TYPE": "UX", "LOCATION": "A2217 ACRE LANE CAMERA B BY PORDEN ROAD (ULEZ 763B)", "SITE_TYPE_DESC": "Ultra Low Emission Zone Camera (UX)", "EASTING": 530865, "NORTHING": 175210, "_borough": "lambeth"}}, {"type": "Feature", "id": 211, "geometry": {"type": "Point", "coordinates": [-0.11187048812087569, 51.479304147141306]}, "properties": {"OBJECTID": 211, "FULL_ID": "09/608851", "SITE_TYPE": "UX", "LOCATION": "BRIXTON ROAD CAMERA A BY CRANMER ROAD (ULEZ 794A)", "SITE_TYPE_DESC": "Ultra Low Emission Zone Camera (UX)", "EASTING": 531213, "NORTHING": 177284, "_borough": "lambeth"}}, {"type": "Feature", "id": 212, "geometry": {"type": "Point", "coordinates": [-0.12424082007785552, 51.470186259817716]}, "properties": {"OBJECTID": 212, "FULL_ID": "09/880021", "SITE_TYPE": "TB", "LOCATION": "0011100021 - CLAPHAM ROAD / GRANTHAM ROAD", "SITE_TYPE_DESC": "CCTV Borough Camera (TB)", "EASTING": 530380, "NORTHING": 176248, "_borough": "lambeth"}}, {"type": "Feature", "id": 213, "geometry": {"type": "Point", "coordinates": [-0.1194857763132669, 51.46851838989246]}, "properties": {"OBJECTID": 213, "FULL_ID": "09/880022", "SITE_TYPE": "TB", "LOCATION": "0011100022 - A203 STOCKWELL ROAD / STOCKWELL GREEN", "SITE_TYPE_DESC": "CCTV Borough Camera (TB)", "EASTING": 530715, "NORTHING": 176071, "_borough": "lambeth"}}, {"type": "Feature", "id": 214, "geometry": {"type": "Point", "coordinates": [-0.11307880083720341, 51.46257912078159]}, "properties": {"OBJECTID": 214, "FULL_ID": "09/880023", "SITE_TYPE": "TB", "LOCATION": "0011100023 - B223 ATLANTIC ROAD / ELECTRIC AVENUE", "SITE_TYPE_DESC": "CCTV Borough Camera (TB)", "EASTING": 531177, "NORTHING": 175422, "_borough": "lambeth"}}, {"type": "Feature", "id": 215, "geometry": {"type": "Point", "coordinates": [-0.11379584774103772, 51.46299533874894]}, "properties": {"OBJECTID": 215, "FULL_ID": "09/880024", "SITE_TYPE": "TB", "LOCATION": "0011100024 - B223 ATLANTIC ROAD / OPP ELECTRIC LANE", "SITE_TYPE_DESC": "CCTV Borough Camera (TB)", "EASTING": 531126, "NORTHING": 175467, "_borough": "lambeth"}}, {"type": "Feature", "id": 216, "geometry": {"type": "Point", "coordinates": [-0.11410364326445147, 51.462163961596914]}, "properties": {"OBJECTID": 216, "FULL_ID": "09/880025", "SITE_TYPE": "TB", "LOCATION": "0011100025 - ELECTRIC AVENUE / ELECTRIC LANE", "SITE_TYPE_DESC": "CCTV Borough Camera (TB)", "EASTING": 531107, "NORTHING": 175374, "_borough": "lambeth"}}, {"type": "Feature", "id": 217, "geometry": {"type": "Point", "coordinates": [-0.1152842739043142, 51.46076209149987]}, "properties": {"OBJECTID": 217, "FULL_ID": "09/880026", "SITE_TYPE": "TB", "LOCATION": "0011100026 - A23 EFFRA ROAD / RUSHCROFT ROAD", "SITE_TYPE_DESC": "CCTV Borough Camera (TB)", "EASTING": 531029, "NORTHING": 175216, "_borough": "lambeth"}}, {"type": "Feature", "id": 218, "geometry": {"type": "Point", "coordinates": [-0.11075596431029314, 51.46235285183016]}, "properties": {"OBJECTID": 218, "FULL_ID": "09/880028", "SITE_TYPE": "TB", "LOCATION": "0011100028 - COLDHARBOUR LANE / SOMERLEYTON ROAD", "SITE_TYPE_DESC": "CCTV Borough Camera (TB)", "EASTING": 531339, "NORTHING": 175401, "_borough": "lambeth"}}, {"type": "Feature", "id": 219, "geometry": {"type": "Point", "coordinates": [-0.11265195124808039, 51.46280606073201]}, "properties": {"OBJECTID": 219, "FULL_ID": "09/880029", "SITE_TYPE": "TB", "LOCATION": "0011100029 - POPES ROAD / NORTH OF ATLANTIC ROAD", "SITE_TYPE_DESC": "CCTV Borough Camera (TB)", "EASTING": 531206, "NORTHING": 175448, "_borough": "lambeth"}}, {"type": "Feature", "id": 220, "geometry": {"type": "Point", "coordinates": [-0.11412476316451474, 51.45501501326681]}, "properties": {"OBJECTID": 220, "FULL_ID": "09/880035", "SITE_TYPE": "TB", "LOCATION": "0011100035 - A204 TULSE HILL / BRIXTON WATER LANE", "SITE_TYPE_DESC": "CCTV Borough Camera (TB)", "EASTING": 531126, "NORTHING": 174579, "_borough": "lambeth"}}, {"type": "Feature", "id": 221, "geometry": {"type": "Point", "coordinates": [-0.1184196903076482, 51.45592937611034]}, "properties": {"OBJECTID": 221, "FULL_ID": "09/880036", "SITE_TYPE": "TB", "LOCATION": "0011100036 - A23 BRIXTON HILL / HORSFORD ROAD", "SITE_TYPE_DESC": "CCTV Borough Camera (TB)", "EASTING": 530825, "NORTHING": 174673, "_borough": "lambeth"}}, {"type": "Feature", "id": 222, "geometry": {"type": "Point", "coordinates": [-0.123049112346974, 51.44904316884]}, "properties": {"OBJECTID": 222, "FULL_ID": "09/880037", "SITE_TYPE": "TB", "LOCATION": "0011100037 - A23 BRIXTON HILL / OPP NEW PARK ROAD", "SITE_TYPE_DESC": "CCTV Borough Camera (TB)", "EASTING": 530523, "NORTHING": 173899, "_borough": "lambeth"}}, {"type": "Feature", "id": 223, "geometry": {"type": "Point", "coordinates": [-0.11595689393817325, 51.45945995813991]}, "properties": {"OBJECTID": 223, "FULL_ID": "09/880038", "SITE_TYPE": "TB", "LOCATION": "0011100038 - A23 ST MATTHEW'S ROAD / OPP ST MATTHEW'S ROAD", "SITE_TYPE_DESC": "CCTV Borough Camera (TB)", "EASTING": 530986, "NORTHING": 175070, "_borough": "lambeth"}}, {"type": "Feature", "id": 224, "geometry": {"type": "Point", "coordinates": [-0.118210774601156, 51.45785947901344]}, "properties": {"OBJECTID": 224, "FULL_ID": "09/880039", "SITE_TYPE": "TB", "LOCATION": "0011100039 - A23 BRIXTON HILL / SUDBOURNE ROAD", "SITE_TYPE_DESC": "CCTV Borough Camera (TB)", "EASTING": 530834, "NORTHING": 174888, "_borough": "lambeth"}}, {"type": "Feature", "id": 225, "geometry": {"type": "Point", "coordinates": [-0.09201820706956092, 51.47222020014259]}, "properties": {"OBJECTID": 225, "FULL_ID": "08/880084", "SITE_TYPE": "TB", "LOCATION": "0011000084 - DANEVILLE ROAD - ORPHEUS STREET", "SITE_TYPE_DESC": "CCTV Borough Camera (TB)", "EASTING": 532612, "NORTHING": 176532, "_borough": "lambeth"}}, {"type": "Feature", "id": 226, "geometry": {"type": "Point", "coordinates": [-0.13463919356352144, 51.46305907871053]}, "properties": {"OBJECTID": 226, "FULL_ID": "09/602154", "SITE_TYPE": "UX", "LOCATION": "CLAPHAM HIGH STREET - VOLTAIRE ROAD (ULEZ 2154)", "SITE_TYPE_DESC": "Ultra Low Emission Zone Camera (UX)", "EASTING": 529678, "NORTHING": 175437, "_borough": "lambeth"}}, {"type": "Feature", "id": 227, "geometry": {"type": "Point", "coordinates": [-0.13448459812408492, 51.462966691860146]}, "properties": {"OBJECTID": 227, "FULL_ID": "09/602155", "SITE_TYPE": "UX", "LOCATION": "CLAPHAM HIGH STREET - VOLTAIRE ROAD (ULEZ 2155)", "SITE_TYPE_DESC": "Ultra Low Emission Zone Camera (UX)", "EASTING": 529689, "NORTHING": 175427, "_borough": "lambeth"}}, {"type": "Feature", "id": 228, "geometry": {"type": "Point", "coordinates": [-0.11436257164180412, 51.46461416829966]}, "properties": {"OBJECTID": 228, "FULL_ID": "09/602164", "SITE_TYPE": "UX", "LOCATION": "A24 BRIXTON ROAD - A203 STOCKWELL ROAD - GRESHAM ROAD - CANTERBURY CRESCENT (ULEZ 906D)", "SITE_TYPE_DESC": "Ultra Low Emission Zone Camera (UX)", "EASTING": 531082, "NORTHING": 175646, "_borough": "lambeth"}}, {"type": "Feature", "id": 229, "geometry": {"type": "Point", "coordinates": [-0.11424969580123899, 51.464558395531775]}, "properties": {"OBJECTID": 229, "FULL_ID": "09/602174", "SITE_TYPE": "UX", "LOCATION": "A24 BRIXTON ROAD - A203 STOCKWELL ROAD - GRESHAM ROAD - CANTERBURY CRESCENT (ULEZ 906C)", "SITE_TYPE_DESC": "Ultra Low Emission Zone Camera (UX)", "EASTING": 531090, "NORTHING": 175640, "_borough": "lambeth"}}, {"type": "Feature", "id": 230, "geometry": {"type": "Point", "coordinates": [-0.11157522852148183, 51.47947924637125]}, "properties": {"OBJECTID": 230, "FULL_ID": "09/608852", "SITE_TYPE": "UX", "LOCATION": "BRIXTON ROAD CAMERA B BY CRANMER ROAD (ULEZ 794B)", "SITE_TYPE_DESC": "Ultra Low Emission Zone Camera (UX)", "EASTING": 531233, "NORTHING": 177304, "_borough": "lambeth"}}, {"type": "Feature", "id": 231, "geometry": {"type": "Point", "coordinates": [-0.1110299457170248, 51.495117788813836]}, "properties": {"OBJECTID": 231, "FULL_ID": "09/608853", "SITE_TYPE": "UX", "LOCATION": "KENNINGTON ROAD BY BROOK DRIVE (ULEZ 851)", "SITE_TYPE_DESC": "Ultra Low Emission Zone Camera (UX)", "EASTING": 531226, "NORTHING": 179044, "_borough": "lambeth"}}, {"type": "Feature", "id": 232, "geometry": {"type": "Point", "coordinates": [-0.11146225423656506, 51.444891161954786]}, "properties": {"OBJECTID": 232, "FULL_ID": "09/608856", "SITE_TYPE": "UX", "LOCATION": "TULSE HILL BY UPPER TULSE HILL BY TRINITY RISE", "SITE_TYPE_DESC": "Ultra Low Emission Zone Camera (UX)", "EASTING": 531340, "NORTHING": 173458, "_borough": "lambeth"}}, {"type": "Feature", "id": 233, "geometry": {"type": "Point", "coordinates": [-0.09710400208556554, 51.47561223032004]}, "properties": {"OBJECTID": 233, "FULL_ID": "08/602214", "SITE_TYPE": "UX", "LOCATION": "CAMBERWELL NEW ROAD BY MEDLAR STREET  NWBOUND (ULEZ 4821)", "SITE_TYPE_DESC": "Ultra Low Emission Zone Camera (UX)", "EASTING": 532249, "NORTHING": 176900, "_borough": "lambeth"}}, {"type": "Feature", "id": 234, "geometry": {"type": "Point", "coordinates": [-0.09291185277200756, 51.47219877239952]}, "properties": {"OBJECTID": 234, "FULL_ID": "08/880085", "SITE_TYPE": "TB", "LOCATION": "0011000085 - DENMARK HILL - COLDHARBOUR LANE", "SITE_TYPE_DESC": "CCTV Borough Camera (TB)", "EASTING": 532550, "NORTHING": 176528, "_borough": "lambeth"}}, {"type": "Feature", "id": 235, "geometry": {"type": "Point", "coordinates": [-0.093303671615989, 51.47281665858255]}, "properties": {"OBJECTID": 235, "FULL_ID": "08/880087", "SITE_TYPE": "TB", "LOCATION": "0011000087 - DENMARK HILL - ORPHEUS STREET", "SITE_TYPE_DESC": "CCTV Borough Camera (TB)", "EASTING": 532521, "NORTHING": 176596, "_borough": "lambeth"}}, {"type": "Feature", "id": 236, "geometry": {"type": "Point", "coordinates": [-0.0929911475412041, 51.473405100379594]}, "properties": {"OBJECTID": 236, "FULL_ID": "08/880088", "SITE_TYPE": "TB", "LOCATION": "0011000088 - DENMARK HILL - BUTTERFLY WALK", "SITE_TYPE_DESC": "CCTV Borough Camera (TB)", "EASTING": 532541, "NORTHING": 176662, "_borough": "lambeth"}}, {"type": "Feature", "id": 237, "geometry": {"type": "Point", "coordinates": [-0.09280872581648872, 51.473635945603]}, "properties": {"OBJECTID": 237, "FULL_ID": "08/880089", "SITE_TYPE": "TB", "LOCATION": "0011000089 - DENMARK HILL - MCDONALDS", "SITE_TYPE_DESC": "CCTV Borough Camera (TB)", "EASTING": 532553, "NORTHING": 176688, "_borough": "lambeth"}}, {"type": "Feature", "id": 238, "geometry": {"type": "Point", "coordinates": [-0.09303596680172292, 51.47371158539306]}, "properties": {"OBJECTID": 238, "FULL_ID": "08/880090", "SITE_TYPE": "TB", "LOCATION": "0011000090 - DENMARK HILL - TRAFFIC ISLAND", "SITE_TYPE_DESC": "CCTV Borough Camera (TB)", "EASTING": 532537, "NORTHING": 176696, "_borough": "lambeth"}}, {"type": "Feature", "id": 239, "geometry": {"type": "Point", "coordinates": [-0.09269787736550048, 51.473876948035816]}, "properties": {"OBJECTID": 239, "FULL_ID": "08/880091", "SITE_TYPE": "TB", "LOCATION": "0011000091 - DENMARK HILL - CAMBERWELL CHURCH STREET", "SITE_TYPE_DESC": "CCTV Borough Camera (TB)", "EASTING": 532560, "NORTHING": 176715, "_borough": "lambeth"}}, {"type": "Feature", "id": 240, "geometry": {"type": "Point", "coordinates": [-0.09036745177417753, 51.473821018502825]}, "properties": {"OBJECTID": 240, "FULL_ID": "08/880095", "SITE_TYPE": "TB", "LOCATION": "0011000095 - CAMBERWELL CHURCH STREET - GROVE LANE", "SITE_TYPE_DESC": "CCTV Borough Camera (TB)", "EASTING": 532722, "NORTHING": 176713, "_borough": "lambeth"}}, {"type": "Feature", "id": 241, "geometry": {"type": "Point", "coordinates": [-0.08889279825755922, 51.47361712773818]}, "properties": {"OBJECTID": 241, "FULL_ID": "08/880096", "SITE_TYPE": "TB", "LOCATION": "0011000096 - CAMBERWELL CHURCH STREET - CAMBERWELL GROVE", "SITE_TYPE_DESC": "CCTV Borough Camera (TB)", "EASTING": 532825, "NORTHING": 176693, "_borough": "lambeth"}}, {"type": "Feature", "id": 242, "geometry": {"type": "Point", "coordinates": [-0.0900335992903898, 51.473195073997076]}, "properties": {"OBJECTID": 242, "FULL_ID": "08/880097", "SITE_TYPE": "TB", "LOCATION": "0011000097 - GROVE LANE - DANVILLE ROAD", "SITE_TYPE_DESC": "CCTV Borough Camera (TB)", "EASTING": 532747, "NORTHING": 176644, "_borough": "lambeth"}}, {"type": "Feature", "id": 243, "geometry": {"type": "Point", "coordinates": [-0.12964991813388305, 51.46537164796086]}, "properties": {"OBJECTID": 243, "FULL_ID": "09/880149", "SITE_TYPE": "TB", "LOCATION": "CLAPHAM PARK ROAD  - BEDFORD ROAD", "SITE_TYPE_DESC": "CCTV Borough Camera (TB)", "EASTING": 530018, "NORTHING": 175703, "_borough": "lambeth"}}, {"type": "Feature", "id": 244, "geometry": {"type": "Point", "coordinates": [-0.12792182743550493, 51.45975059021523]}, "properties": {"OBJECTID": 244, "FULL_ID": "09/880150", "SITE_TYPE": "TB", "LOCATION": "ACRE LANE - HETHERINGTON ROAD", "SITE_TYPE_DESC": "CCTV Borough Camera (TB)", "EASTING": 530154, "NORTHING": 175081, "_borough": "lambeth"}}, {"type": "Feature", "id": 245, "geometry": {"type": "Point", "coordinates": [-0.11591758598937686, 51.46111400057522]}, "properties": {"OBJECTID": 245, "FULL_ID": "09/880151", "SITE_TYPE": "TB", "LOCATION": "ACRE LANE - BRIXTON ROAD", "SITE_TYPE_DESC": "CCTV Borough Camera (TB)", "EASTING": 530984, "NORTHING": 175254, "_borough": "lambeth"}}, {"type": "Feature", "id": 246, "geometry": {"type": "Point", "coordinates": [-0.14428112414340846, 51.46812207153616]}, "properties": {"OBJECTID": 246, "FULL_ID": "09/880152", "SITE_TYPE": "TB", "LOCATION": "WANDSWORTH ROAD - SILVERTHORNE ROAD", "SITE_TYPE_DESC": "CCTV Borough Camera (TB)", "EASTING": 528994, "NORTHING": 175983, "_borough": "lambeth"}}, {"type": "Feature", "id": 247, "geometry": {"type": "Point", "coordinates": [-0.14312472129967188, 51.468589368684654]}, "properties": {"OBJECTID": 247, "FULL_ID": "09/880153", "SITE_TYPE": "TB", "LOCATION": "WANDSWORTH ROAD - ROZEL ROAD", "SITE_TYPE_DESC": "CCTV Borough Camera (TB)", "EASTING": 529073, "NORTHING": 176037, "_borough": "lambeth"}}, {"type": "Feature", "id": 248, "geometry": {"type": "Point", "coordinates": [-0.11524908608588866, 51.45916980037117]}, "properties": {"OBJECTID": 248, "FULL_ID": "09/880154", "SITE_TYPE": "TB", "LOCATION": "EFFRA ROAD - ST MATTHEWS ROAD", "SITE_TYPE_DESC": "CCTV Borough Camera (TB)", "EASTING": 531036, "NORTHING": 175039, "_borough": "lambeth"}}, {"type": "Feature", "id": 249, "geometry": {"type": "Point", "coordinates": [-0.1046255857825859, 51.43622856891703]}, "properties": {"OBJECTID": 249, "FULL_ID": "09/880155", "SITE_TYPE": "TB", "LOCATION": "0015600008 - A215 NORWOOD ROAD SOUTH OF YORK HILL", "SITE_TYPE_DESC": "CCTV Borough Camera (TB)", "EASTING": 531840, "NORTHING": 172507, "_borough": "lambeth"}}, {"type": "Feature", "id": 250, "geometry": {"type": "Point", "coordinates": [-0.15339431063628894, 51.46599979144904]}, "properties": {"OBJECTID": 250, "FULL_ID": "10/608443", "SITE_TYPE": "UX", "LOCATION": "A3036 LAVENDER HILL BY ASHLEY CRESCENT (ULEZ 1051)", "SITE_TYPE_DESC": "Ultra Low Emission Zone Camera (UX)", "EASTING": 528367, "NORTHING": 175731, "_borough": "lambeth"}}, {"type": "Feature", "id": 251, "geometry": {"type": "Point", "coordinates": [-0.14887751593426463, 51.47195365202044]}, "properties": {"OBJECTID": 251, "FULL_ID": "10/608444", "SITE_TYPE": "UX", "LOCATION": "QUEENSTOWN ROAD BY BROUGHTON STREET", "SITE_TYPE_DESC": "Ultra Low Emission Zone Camera (UX)", "EASTING": 528664, "NORTHING": 176401, "_borough": "lambeth"}}, {"type": "Feature", "id": 252, "geometry": {"type": "Point", "coordinates": [-0.14864618445873526, 51.47197697793217]}, "properties": {"OBJECTID": 252, "FULL_ID": "10/608445", "SITE_TYPE": "UX", "LOCATION": "QUEENSTOWN ROAD BY BROUGHTON STREET", "SITE_TYPE_DESC": "Ultra Low Emission Zone Camera (UX)", "EASTING": 528680, "NORTHING": 176404, "_borough": "lambeth"}}, {"type": "Feature", "id": 253, "geometry": {"type": "Point", "coordinates": [-0.1533755719271891, 51.46610740813597]}, "properties": {"OBJECTID": 253, "FULL_ID": "10/608446", "SITE_TYPE": "UX", "LOCATION": "LAVENDER HILL BY WOODMERE CLOSE", "SITE_TYPE_DESC": "Ultra Low Emission Zone Camera (UX)", "EASTING": 528368, "NORTHING": 175743, "_borough": "lambeth"}}, {"type": "Feature", "id": 254, "geometry": {"type": "Point", "coordinates": [-0.15048862560939352, 51.44420061631454]}, "properties": {"OBJECTID": 254, "FULL_ID": "10/880705", "SITE_TYPE": "TB", "LOCATION": "HILDRETH STREET / BEDFORD HILL", "SITE_TYPE_DESC": "CCTV Borough Camera (TB)", "EASTING": 528630, "NORTHING": 173312, "_borough": "lambeth"}}, {"type": "Feature", "id": 255, "geometry": {"type": "Point", "coordinates": [-0.15206514728061088, 51.44329022616521]}, "properties": {"OBJECTID": 255, "FULL_ID": "10/880703", "SITE_TYPE": "TB", "LOCATION": "BALHAM HIGH ROAD / BARCLAYS BANK", "SITE_TYPE_DESC": "CCTV Borough Camera (TB)", "EASTING": 528523, "NORTHING": 173208, "_borough": "lambeth"}}, {"type": "Feature", "id": 256, "geometry": {"type": "Point", "coordinates": [-0.10592361497715, 51.437544532761834]}, "properties": {"OBJECTID": 256, "FULL_ID": "09/880114", "SITE_TYPE": "TB", "LOCATION": "0011100114 - A215 NORWOOD ROAD / HARPENDEN ROAD", "SITE_TYPE_DESC": "CCTV Borough Camera (TB)", "EASTING": 531746, "NORTHING": 172651, "_borough": "lambeth"}}, {"type": "Feature", "id": 257, "geometry": {"type": "Point", "coordinates": [-0.10521720064714224, 51.43653490302787]}, "properties": {"OBJECTID": 257, "FULL_ID": "09/880115", "SITE_TYPE": "TB", "LOCATION": "0011100115 - A215 NORWOOD ROAD / YORK HILL", "SITE_TYPE_DESC": "CCTV Borough Camera (TB)", "EASTING": 531798, "NORTHING": 172540, "_borough": "lambeth"}}, {"type": "Feature", "id": 258, "geometry": {"type": "Point", "coordinates": [-0.10402365055288179, 51.43200118570168]}, "properties": {"OBJECTID": 258, "FULL_ID": "09/880116", "SITE_TYPE": "TB", "LOCATION": "0011100116 - A215 KNIGHTS HILL / HANNEN ROAD / WEST NORWOOD TRAIN STATION", "SITE_TYPE_DESC": "CCTV Borough Camera (TB)", "EASTING": 531894, "NORTHING": 172038, "_borough": "lambeth"}}, {"type": "Feature", "id": 259, "geometry": {"type": "Point", "coordinates": [-0.10362262978850452, 51.434737508351816]}, "properties": {"OBJECTID": 259, "FULL_ID": "09/880117", "SITE_TYPE": "TB", "LOCATION": "0011100117 - A215 NORWOOD ROAD / OPP WAYLETT PLACE", "SITE_TYPE_DESC": "CCTV Borough Camera (TB)", "EASTING": 531914, "NORTHING": 172343, "_borough": "lambeth"}}, {"type": "Feature", "id": 260, "geometry": {"type": "Point", "coordinates": [-0.10408571564399646, 51.43362988937509]}, "properties": {"OBJECTID": 260, "FULL_ID": "09/880118", "SITE_TYPE": "TB", "LOCATION": "0011100118 - A215 NORWOOD ROAD / OPP ROBSON ROAD", "SITE_TYPE_DESC": "CCTV Borough Camera (TB)", "EASTING": 531885, "NORTHING": 172219, "_borough": "lambeth"}}, {"type": "Feature", "id": 261, "geometry": {"type": "Point", "coordinates": [-0.10428714107633344, 51.43223926315082]}, "properties": {"OBJECTID": 261, "FULL_ID": "09/880119", "SITE_TYPE": "TB", "LOCATION": "0011100119 - A215 KNIGHTS HILL / NETTLEFOLD PLACE", "SITE_TYPE_DESC": "CCTV Borough Camera (TB)", "EASTING": 531875, "NORTHING": 172064, "_borough": "lambeth"}}, {"type": "Feature", "id": 262, "geometry": {"type": "Point", "coordinates": [-0.10394854911410313, 51.431730185711366]}, "properties": {"OBJECTID": 262, "FULL_ID": "09/880120", "SITE_TYPE": "TB", "LOCATION": "0011100120 - A215 KNIGHTS HILL / NORTH OF COTSWOLD STREET / WEST NORWOOD STATION", "SITE_TYPE_DESC": "CCTV Borough Camera (TB)", "EASTING": 531900, "NORTHING": 172008, "_borough": "lambeth"}}, {"type": "Feature", "id": 263, "geometry": {"type": "Point", "coordinates": [-0.10461632873141717, 51.43123739482928]}, "properties": {"OBJECTID": 263, "FULL_ID": "09/880121", "SITE_TYPE": "TB", "LOCATION": "0011100121 - A215 KNIGHTS HILL / WOLFINGTON ROAD", "SITE_TYPE_DESC": "CCTV Borough Camera (TB)", "EASTING": 531855, "NORTHING": 171952, "_borough": "lambeth"}}, {"type": "Feature", "id": 264, "geometry": {"type": "Point", "coordinates": [-0.10430799212138658, 51.4296496699256]}, "properties": {"OBJECTID": 264, "FULL_ID": "09/880122", "SITE_TYPE": "TB", "LOCATION": "0011100122 - A215 KNIGHTS HILL / A215 ERNEST AVENUE", "SITE_TYPE_DESC": "CCTV Borough Camera (TB)", "EASTING": 531881, "NORTHING": 171776, "_borough": "lambeth"}}, {"type": "Feature", "id": 265, "geometry": {"type": "Point", "coordinates": [-0.1513248801174005, 51.44522999158602]}, "properties": {"OBJECTID": 265, "FULL_ID": "10/880706", "SITE_TYPE": "TB", "LOCATION": "BALHAM HIGH ROAD / BEDFORD HILL", "SITE_TYPE_DESC": "CCTV Borough Camera (TB)", "EASTING": 528569, "NORTHING": 173425, "_borough": "lambeth"}}, {"type": "Feature", "id": 266, "geometry": {"type": "Point", "coordinates": [-0.14995164594641308, 51.44288818952849]}, "properties": {"OBJECTID": 266, "FULL_ID": "10/880707", "SITE_TYPE": "TB", "LOCATION": "BALHAM STATION ROAD / BEDFORD HILL", "SITE_TYPE_DESC": "CCTV Borough Camera (TB)", "EASTING": 528671, "NORTHING": 173167, "_borough": "lambeth"}}, {"type": "Feature", "id": 267, "geometry": {"type": "Point", "coordinates": [-0.10472341389382271, 51.428649196875824]}, "properties": {"OBJECTID": 267, "FULL_ID": "09/880123", "SITE_TYPE": "TB", "LOCATION": "0011100123 - A215 KNIGHTS HILL / CHEVIOT ROAD", "SITE_TYPE_DESC": "CCTV Borough Camera (TB)", "EASTING": 531855, "NORTHING": 171664, "_borough": "lambeth"}}, {"type": "Feature", "id": 268, "geometry": {"type": "Point", "coordinates": [-0.10060522970631179, 51.42874436328419]}, "properties": {"OBJECTID": 268, "FULL_ID": "09/880124", "SITE_TYPE": "TB", "LOCATION": "0011100124 - B232 NORWOOD HIGH STREET / OPP ROTHSCHILD STREET", "SITE_TYPE_DESC": "CCTV Borough Camera (TB)", "EASTING": 532141, "NORTHING": 171682, "_borough": "lambeth"}}, {"type": "Feature", "id": 269, "geometry": {"type": "Point", "coordinates": [-0.10129876382140034, 51.43005956586753]}, "properties": {"OBJECTID": 269, "FULL_ID": "09/880125", "SITE_TYPE": "TB", "LOCATION": "0011100125 - A215 NORWOOD HIGH STREET / A215 ERNEST AVENUE", "SITE_TYPE_DESC": "CCTV Borough Camera (TB)", "EASTING": 532089, "NORTHING": 171827, "_borough": "lambeth"}}, {"type": "Feature", "id": 270, "geometry": {"type": "Point", "coordinates": [-0.1287522854961319, 51.43310022367548]}, "properties": {"OBJECTID": 270, "FULL_ID": "09/880090", "SITE_TYPE": "TB", "LOCATION": "0011100090 - A23 STREATHAM HIGH ROAD / OPP GRACEFIELD GARDENS", "SITE_TYPE_DESC": "CCTV Borough Camera (TB)", "EASTING": 530172, "NORTHING": 172116, "_borough": "lambeth"}}, {"type": "Feature", "id": 271, "geometry": {"type": "Point", "coordinates": [-0.1284902449034325, 51.433527690880055]}, "properties": {"OBJECTID": 271, "FULL_ID": "09/880091", "SITE_TYPE": "TB", "LOCATION": "0011100091 - A23 STREATHAM HIGH ROAD / WOODBOURNE AVENUE", "SITE_TYPE_DESC": "CCTV Borough Camera (TB)", "EASTING": 530189, "NORTHING": 172164, "_borough": "lambeth"}}, {"type": "Feature", "id": 272, "geometry": {"type": "Point", "coordinates": [-0.12842298890236567, 51.434821577926165]}, "properties": {"OBJECTID": 272, "FULL_ID": "09/880092", "SITE_TYPE": "TB", "LOCATION": "0011100092 - A23 STREATHAM HIGH ROAD / NORFOLK HOUSE ROAD", "SITE_TYPE_DESC": "CCTV Borough Camera (TB)", "EASTING": 530190, "NORTHING": 172308, "_borough": "lambeth"}}, {"type": "Feature", "id": 273, "geometry": {"type": "Point", "coordinates": [-0.12755761750590366, 51.43663328776342]}, "properties": {"OBJECTID": 273, "FULL_ID": "09/880094", "SITE_TYPE": "TB", "LOCATION": "0011100094 - A23 STREATHAM HIGH ROAD / OPP BROADLANDS AVENUE", "SITE_TYPE_DESC": "CCTV Borough Camera (TB)", "EASTING": 530245, "NORTHING": 172511, "_borough": "lambeth"}}, {"type": "Feature", "id": 274, "geometry": {"type": "Point", "coordinates": [-0.12748738772024285, 51.43799906975392]}, "properties": {"OBJECTID": 274, "FULL_ID": "09/880095", "SITE_TYPE": "TB", "LOCATION": "0011100095 - A23 STREATHAM HIGH ROAD / DREWSTEAD ROAD", "SITE_TYPE_DESC": "CCTV Borough Camera (TB)", "EASTING": 530246, "NORTHING": 172663, "_borough": "lambeth"}}, {"type": "Feature", "id": 275, "geometry": {"type": "Point", "coordinates": [-0.1270494479061531, 51.43850465878085]}, "properties": {"OBJECTID": 275, "FULL_ID": "09/880096", "SITE_TYPE": "TB", "LOCATION": "0011100096 - A23 STREATHAM HILL / B221 STERNHOLD AVENUE", "SITE_TYPE_DESC": "CCTV Borough Camera (TB)", "EASTING": 530275, "NORTHING": 172720, "_borough": "lambeth"}}, {"type": "Feature", "id": 276, "geometry": {"type": "Point", "coordinates": [-0.12600720128169401, 51.43900957483365]}, "properties": {"OBJECTID": 276, "FULL_ID": "09/880097", "SITE_TYPE": "TB", "LOCATION": "0011100097 - A23 STREATHAM HILL / BARCOMBE AVENUE", "SITE_TYPE_DESC": "CCTV Borough Camera (TB)", "EASTING": 530346, "NORTHING": 172778, "_borough": "lambeth"}}, {"type": "Feature", "id": 277, "geometry": {"type": "Point", "coordinates": [-0.14855036930207904, 51.440887644856325]}, "properties": {"OBJECTID": 277, "FULL_ID": "10/880709", "SITE_TYPE": "TB", "LOCATION": "BEDFORD HILL / LARCH CLOSE", "SITE_TYPE_DESC": "CCTV Borough Camera (TB)", "EASTING": 528774, "NORTHING": 172947, "_borough": "lambeth"}}, {"type": "Feature", "id": 278, "geometry": {"type": "Point", "coordinates": [-0.14764563408173398, 51.452581947022864]}, "properties": {"OBJECTID": 278, "FULL_ID": "10/880721", "SITE_TYPE": "TB", "LOCATION": "WESTBURY PARADE", "SITE_TYPE_DESC": "CCTV Borough Camera (TB)", "EASTING": 528804, "NORTHING": 174249, "_borough": "lambeth"}}, {"type": "Feature", "id": 279, "geometry": {"type": "Point", "coordinates": [-0.14769937564617558, 51.453032432838754]}, "properties": {"OBJECTID": 279, "FULL_ID": "10/880722", "SITE_TYPE": "TB", "LOCATION": "NIGHTINGALE LANE", "SITE_TYPE_DESC": "CCTV Borough Camera (TB)", "EASTING": 528799, "NORTHING": 174299, "_borough": "lambeth"}}, {"type": "Feature", "id": 280, "geometry": {"type": "Point", "coordinates": [-0.1258852857275284, 51.440230644435665]}, "properties": {"OBJECTID": 280, "FULL_ID": "09/880098", "SITE_TYPE": "TB", "LOCATION": "0011100098 - A23 STREATHAM HILL / BARRHILL ROAD", "SITE_TYPE_DESC": "CCTV Borough Camera (TB)", "EASTING": 530351, "NORTHING": 172914, "_borough": "lambeth"}}, {"type": "Feature", "id": 281, "geometry": {"type": "Point", "coordinates": [-0.13606390963277473, 51.43019518643882]}, "properties": {"OBJECTID": 281, "FULL_ID": "09/880099", "SITE_TYPE": "TB", "LOCATION": "0011100099 - A214 TOOTING BEC ROAD / TOOTING BEC GARDENS / OPP THIRLMERE ROAD", "SITE_TYPE_DESC": "CCTV Borough Camera (TB)", "EASTING": 529672, "NORTHING": 171780, "_borough": "lambeth"}}, {"type": "Feature", "id": 282, "geometry": {"type": "Point", "coordinates": [-0.13503689908254196, 51.43139288394978]}, "properties": {"OBJECTID": 282, "FULL_ID": "09/880100", "SITE_TYPE": "TB", "LOCATION": "0011100100 - B242 GARRAD'S ROAD / BECMEAD AVENUE", "SITE_TYPE_DESC": "CCTV Borough Camera (TB)", "EASTING": 529740, "NORTHING": 171915, "_borough": "lambeth"}}, {"type": "Feature", "id": 283, "geometry": {"type": "Point", "coordinates": [-0.13560621468329245, 51.43295768788974]}, "properties": {"OBJECTID": 283, "FULL_ID": "09/880101", "SITE_TYPE": "TB", "LOCATION": "0011100101 - B242 GARRAD'S ROAD / WOODBOURNE AVENUE", "SITE_TYPE_DESC": "CCTV Borough Camera (TB)", "EASTING": 529696, "NORTHING": 172088, "_borough": "lambeth"}}, {"type": "Feature", "id": 284, "geometry": {"type": "Point", "coordinates": [-0.1018628680137276, 51.430680219597576]}, "properties": {"OBJECTID": 284, "FULL_ID": "09/880126", "SITE_TYPE": "TB", "LOCATION": "0011100126 - A215 NORWOOD HIGH STREET / OPP LANGMEAD STREET", "SITE_TYPE_DESC": "CCTV Borough Camera (TB)", "EASTING": 532048, "NORTHING": 171895, "_borough": "lambeth"}}, {"type": "Feature", "id": 285, "geometry": {"type": "Point", "coordinates": [-0.10237715580132263, 51.43146193472869]}, "properties": {"OBJECTID": 285, "FULL_ID": "09/880127", "SITE_TYPE": "TB", "LOCATION": "0011100127 - A215 NORWOOD HIGH STREET / AUKLAND HILL", "SITE_TYPE_DESC": "CCTV Borough Camera (TB)", "EASTING": 532010, "NORTHING": 171981, "_borough": "lambeth"}}, {"type": "Feature", "id": 286, "geometry": {"type": "Point", "coordinates": [-0.10267789963072964, 51.432536951736544]}, "properties": {"OBJECTID": 286, "FULL_ID": "09/880128", "SITE_TYPE": "TB", "LOCATION": "0011100128 - A215 NORWOOD HIGH STREET / DUNBAR STREET", "SITE_TYPE_DESC": "CCTV Borough Camera (TB)", "EASTING": 531986, "NORTHING": 172100, "_borough": "lambeth"}}, {"type": "Feature", "id": 287, "geometry": {"type": "Point", "coordinates": [-0.11108662035522446, 51.48119797202023]}, "properties": {"OBJECTID": 287, "FULL_ID": "09/880130", "SITE_TYPE": "TB", "LOCATION": "0011100130 - A202 CAMBERWELL NEW ROAD / A23 BRIXTON ROAD", "SITE_TYPE_DESC": "CCTV Borough Camera (TB)", "EASTING": 531262, "NORTHING": 177496, "_borough": "lambeth"}}, {"type": "Feature", "id": 288, "geometry": {"type": "Point", "coordinates": [-0.11217779683337568, 51.481629206487256]}, "properties": {"OBJECTID": 288, "FULL_ID": "09/880131", "SITE_TYPE": "TB", "LOCATION": "0011100131 - A202 CAMBERWELL NEW ROAD / A3 CLAPHAM ROAD (OPP OVAL STATION)", "SITE_TYPE_DESC": "CCTV Borough Camera (TB)", "EASTING": 531185, "NORTHING": 177542, "_borough": "lambeth"}}, {"type": "Feature", "id": 289, "geometry": {"type": "Point", "coordinates": [-0.11178540943424405, 51.482063530381616]}, "properties": {"OBJECTID": 289, "FULL_ID": "09/880132", "SITE_TYPE": "TB", "LOCATION": "0011100132 - A3 KENNINGTON PARK ROAD / A202 CAMBERWELL NEW ROAD", "SITE_TYPE_DESC": "CCTV Borough Camera (TB)", "EASTING": 531211, "NORTHING": 177591, "_borough": "lambeth"}}, {"type": "Feature", "id": 290, "geometry": {"type": "Point", "coordinates": [-0.11035145447651894, 51.48435155419889]}, "properties": {"OBJECTID": 290, "FULL_ID": "09/880133", "SITE_TYPE": "TB", "LOCATION": "0011100133 - A3 KENNINGTON PARK ROAD / A23 KENNINGTON ROAD", "SITE_TYPE_DESC": "CCTV Borough Camera (TB)", "EASTING": 531304, "NORTHING": 177848, "_borough": "lambeth"}}, {"type": "Feature", "id": 291, "geometry": {"type": "Point", "coordinates": [-0.11436544989816125, 51.47956910967381]}, "properties": {"OBJECTID": 291, "FULL_ID": "09/880134", "SITE_TYPE": "TB", "LOCATION": "0011100134 - A3 CLAPHAM ROAD / OPP FENTIMAN ROAD", "SITE_TYPE_DESC": "CCTV Borough Camera (TB)", "EASTING": 531039, "NORTHING": 177309, "_borough": "lambeth"}}, {"type": "Feature", "id": 292, "geometry": {"type": "Point", "coordinates": [-0.1510042431797032, 51.45566551566855]}, "properties": {"OBJECTID": 292, "FULL_ID": "10/607001", "SITE_TYPE": "UX", "LOCATION": "WINDMILL DRIVE BY THE AVENUE", "SITE_TYPE_DESC": "Ultra Low Emission Zone Camera (UX)", "EASTING": 528562, "NORTHING": 174586, "_borough": "lambeth"}}, {"type": "Feature", "id": 293, "geometry": {"type": "Point", "coordinates": [-0.15641591468758356, 51.461398135854594]}, "properties": {"OBJECTID": 293, "FULL_ID": "10/607002", "SITE_TYPE": "UX", "LOCATION": "MARNEY ROAD BY CLAPHAM COMMON NORTH SIDE", "SITE_TYPE_DESC": "Ultra Low Emission Zone Camera (UX)", "EASTING": 528170, "NORTHING": 175214, "_borough": "lambeth"}}, {"type": "Feature", "id": 294, "geometry": {"type": "Point", "coordinates": [-0.15722872841331656, 51.461590765402995]}, "properties": {"OBJECTID": 294, "FULL_ID": "10/607003", "SITE_TYPE": "UX", "LOCATION": "SUGDEN ROAD BY CLAPHAM COMMON NORTH SIDE", "SITE_TYPE_DESC": "Ultra Low Emission Zone Camera (UX)", "EASTING": 528113, "NORTHING": 175234, "_borough": "lambeth"}}, {"type": "Feature", "id": 295, "geometry": {"type": "Point", "coordinates": [-0.11123493518489644, 51.47969858295421]}, "properties": {"OBJECTID": 295, "FULL_ID": "09/880135", "SITE_TYPE": "TB", "LOCATION": "0011100135 - A23 BRIXTON ROAD / CRANMER ROAD", "SITE_TYPE_DESC": "CCTV Borough Camera (TB)", "EASTING": 531256, "NORTHING": 177329, "_borough": "lambeth"}}, {"type": "Feature", "id": 296, "geometry": {"type": "Point", "coordinates": [-0.10784162873736915, 51.479913659618624]}, "properties": {"OBJECTID": 296, "FULL_ID": "09/880136", "SITE_TYPE": "TB", "LOCATION": "0011100136 - A202 CAMBERWELL NEW ROAD / FOXLEY ROAD", "SITE_TYPE_DESC": "CCTV Borough Camera (TB)", "EASTING": 531491, "NORTHING": 177359, "_borough": "lambeth"}}, {"type": "Feature", "id": 297, "geometry": {"type": "Point", "coordinates": [-0.10376930904673047, 51.47809430365266]}, "properties": {"OBJECTID": 297, "FULL_ID": "09/880137", "SITE_TYPE": "TB", "LOCATION": "0011100137 - A202 CAMBERWELL NEW ROAD / VASSALL ROAD", "SITE_TYPE_DESC": "CCTV Borough Camera (TB)", "EASTING": 531779, "NORTHING": 177164, "_borough": "lambeth"}}, {"type": "Feature", "id": 298, "geometry": {"type": "Point", "coordinates": [-0.10999568058337074, 51.50200756047092]}, "properties": {"OBJECTID": 298, "FULL_ID": "09/880138", "SITE_TYPE": "TB", "LOCATION": "0011100138 - A301 WATERLOO ROAD / B300 BAYLIS ROAD", "SITE_TYPE_DESC": "CCTV Borough Camera (TB)", "EASTING": 531278, "NORTHING": 179812, "_borough": "lambeth"}}, {"type": "Feature", "id": 299, "geometry": {"type": "Point", "coordinates": [-0.11062823219864606, 51.50169401219664]}, "properties": {"OBJECTID": 299, "FULL_ID": "09/880139", "SITE_TYPE": "TB", "LOCATION": "0011100139 - B300 BAYLIS ROAD / LOWER MARSH / SPUR ROAD", "SITE_TYPE_DESC": "CCTV Borough Camera (TB)", "EASTING": 531235, "NORTHING": 179776, "_borough": "lambeth"}}, {"type": "Feature", "id": 300, "geometry": {"type": "Point", "coordinates": [-0.11251469105675585, 51.50102295018298]}, "properties": {"OBJECTID": 300, "FULL_ID": "09/880140", "SITE_TYPE": "TB", "LOCATION": "0011100140 - LOWER MARSH / LAUNCELOT STREET", "SITE_TYPE_DESC": "CCTV Borough Camera (TB)", "EASTING": 531106, "NORTHING": 179698, "_borough": "lambeth"}}, {"type": "Feature", "id": 301, "geometry": {"type": "Point", "coordinates": [-0.11472461556182577, 51.49984447241885]}, "properties": {"OBJECTID": 301, "FULL_ID": "09/880141", "SITE_TYPE": "TB", "LOCATION": "0011100141 - A23 WESTMINSTER BRIDGE ROAD / UPPER MARSH", "SITE_TYPE_DESC": "CCTV Borough Camera (TB)", "EASTING": 530956, "NORTHING": 179563, "_borough": "lambeth"}}, {"type": "Feature", "id": 302, "geometry": {"type": "Point", "coordinates": [-0.11200793892632051, 51.49899142531896]}, "properties": {"OBJECTID": 302, "FULL_ID": "09/880142", "SITE_TYPE": "TB", "LOCATION": "0011100142 - B300 BAYLIS ROAD / A23 WESTMINSTER BRIDGE ROAD", "SITE_TYPE_DESC": "CCTV Borough Camera (TB)", "EASTING": 531147, "NORTHING": 179473, "_borough": "lambeth"}}, {"type": "Feature", "id": 303, "geometry": {"type": "Point", "coordinates": [-0.11159781437378459, 51.500198843117275]}, "properties": {"OBJECTID": 303, "FULL_ID": "09/880143", "SITE_TYPE": "TB", "LOCATION": "0011100143 - B300 BAYLIS ROAD / FRAZIER STREET", "SITE_TYPE_DESC": "CCTV Borough Camera (TB)", "EASTING": 531172, "NORTHING": 179608, "_borough": "lambeth"}}, {"type": "Feature", "id": 304, "geometry": {"type": "Point", "coordinates": [-0.11511772746106426, 51.498349002826366]}, "properties": {"OBJECTID": 304, "FULL_ID": "09/880144", "SITE_TYPE": "TB", "LOCATION": "0011100144 - ROYAL STREET / CARLISLE LANE", "SITE_TYPE_DESC": "CCTV Borough Camera (TB)", "EASTING": 530933, "NORTHING": 179396, "_borough": "lambeth"}}, {"type": "Feature", "id": 305, "geometry": {"type": "Point", "coordinates": [-0.149835015581854, 51.4696396662557]}, "properties": {"OBJECTID": 305, "FULL_ID": "10/880517", "SITE_TYPE": "TB", "LOCATION": "QUEENSTOWN ROAD / ST PHILLIPS SQUARE", "SITE_TYPE_DESC": "CCTV Borough Camera (TB)", "EASTING": 528604, "NORTHING": 176142, "_borough": "lambeth"}}, {"type": "Feature", "id": 306, "geometry": {"type": "Point", "coordinates": [-0.1506855227604038, 51.46747686010607]}, "properties": {"OBJECTID": 306, "FULL_ID": "10/880518", "SITE_TYPE": "TB", "LOCATION": "QUEENSTOWN ROAD / ROBERTSON STREET", "SITE_TYPE_DESC": "CCTV Borough Camera (TB)", "EASTING": 528551, "NORTHING": 175900, "_borough": "lambeth"}}, {"type": "Feature", "id": 307, "geometry": {"type": "Point", "coordinates": [-0.11075350434361142, 51.460320437006125]},