{"type":"FeatureCollection","crs":{"type":"name","properties":{"name":"EPSG:4326"}},"features":[{"type":"Feature","id":1,"geometry":{"type":"Point","coordinates":[-0.305793652132798,51.3681414587562]},"properties":{"ATT1":"Hook and Chessington Library","ATT2":"KT9 1EJ","ID":"1","ObjectID":1,"Address":"The Hook Centre, Hook Road, Chessington, KT9 1EJ","Telephone":"020 8547 5006","Website":"http://www.kingston.gov.uk/info/200209/library_branches/292/hook_and_chessington_library"}},{"type":"Feature","id":2,"geometry":{"type":"Point","coordinates":[-0.300232508239648,51.4094079192724]},"properties":{"ATT1":"Kingston Library","ATT2":"KT1 2PS","ID":"2","ObjectID":2,"Address":"Fairfield Road, Kingston upon Thames, KT1 2PS","Telephone":"020 8547 5006","Website":"http://www.kingston.gov.uk/info/200209/library_branches/298/kingston_library"}},{"type":"Feature","id":3,"geometry":{"type":"Point","coordinates":[-0.260920453363034,51.3992033006802]},"properties":{"ATT1":"New Malden Library","ATT2":"KT3 3LY","ID":"3","ObjectID":3,"Address":"Kingston Road, New Malden, KT3 3LY","Telephone":"020 8547 5006","Website":"http://www.kingston.gov.uk/info/200209/library_branches/299/new_malden_library"}},{"type":"Feature","id":4,"geometry":{"type":"Point","coordinates":[-0.25488020993387,51.3837620105114]},"properties":{"ATT1":"Old Malden Library","ATT2":"KT4 7RD","ID":"4","ObjectID":4,"Address":"Church Road, Worcester Park, Surrey, KT4 7RD","Telephone":"020 8547 5006","Website":"http://www.kingston.gov.uk/info/200209/library_branches/300/old_malden_library"}},{"type":"Feature","id":5,"geometry":{"type":"Point","coordinates":[-0.298197054094258,51.3927911152079]},"properties":{"ATT1":"Surbiton Library","ATT2":"KT6 6AG","ID":"5","ObjectID":5,"Address":"Ewell Road, Surbiton, KT6 6AG","Telephone":"020 8547 5006","Website":"http://www.kingston.gov.uk/info/200209/library_branches/301/surbiton_library"}},{"type":"Feature","id":6,"geometry":{"type":"Point","coordinates":[-0.282257420622006,51.3810783904779]},"properties":{"ATT1":"Tolworth Community Library","ATT2":"KT6 7DJ","ID":"6","ObjectID":6,"Address":"37-39 The Broadway, Tolworth, KT6 7DJ","Telephone":"020 8547 5006","Website":"http://www.kingston.gov.uk/info/200209/library_branches/302/tolworth_community_library"}},{"type":"Feature","id":7,"geometry":{"type":"Point","coordinates":[-0.297609883392208,51.4263883754147]},"properties":{"ATT1":"Tudor Drive Library","ATT2":"KT2 5QH","ID":"7","ObjectID":7,"Address":"Tudor Drive, Kingston Upon Thames, KT2 5QH\r\n","Telephone":"020 8547 5006","Website":"http://www.kingston.gov.uk/info/200209/library_branches/303/tudor_drive_library"}}]}