{"type":"FeatureCollection","features":[{"type":"Feature","id":1,"geometry":{"type":"Point","coordinates":[-0.13216137839361339,51.448244435246437]},"properties":{"OBJECTID":1,"EASTING":529892.10999999999,"NORTHING":173793.98999999999,"UPRN":10094055034,"POLLINGDISTRICT":"CPK2C & CPK3C","POLLINGPLACENAME":"Clapham Park Cube, 116 Kings Avenue, London, SW4 8EP","LEGEND2":"CPK2C & CPK3C, Clapham Park Cube, 116 Kings Avenue, London, SW4 8EP"}},{"type":"Feature","id":2,"geometry":{"type":"Point","coordinates":[-0.12914536317153283,51.431577731398562]},"properties":{"OBJECTID":2,"EASTING":530149,"NORTHING":171946,"UPRN":100023315960,"POLLINGDISTRICT":"SWE1","POLLINGPLACENAME":"Streatham Tate Library, 63 Streatham High Road, London, SW16 1PN","LEGEND2":"SWE1, Streatham Tate Library, 63 Streatham High Road, London, SW16 1PN"}},{"type":"Feature","id":3,"geometry":{"type":"Point","coordinates":[-0.13174216630981303,51.428930330167141]},"properties":{"OBJECTID":3,"EASTING":529976,"NORTHING":171647,"UPRN":200000484414,"POLLINGDISTRICT":"SSL2","POLLINGPLACENAME":"English Martyrs Church, 2 Mitcham Lane, London, SW16 6NN","LEGEND2":"SSL2, English Martyrs Church, 2 Mitcham Lane, London, SW16 6NN"}},{"type":"Feature","id":4,"geometry":{"type":"Point","coordinates":[-0.11179252343836477,51.498277531469022]},"properties":{"OBJECTID":4,"EASTING":531164,"NORTHING":179394,"UPRN":null,"POLLINGDISTRICT":"WSB3","POLLINGPLACENAME":"Oasis Hub Waterloo, 1 Kennington Road, London, SE1 7QP","LEGEND2":"WSB3, Oasis Hub Waterloo, 1 Kennington Road, London, SE1 7QP"}},{"type":"Feature","id":5,"geometry":{"type":"Point","coordinates":[-0.13242365507311865,51.422799127006726]},"properties":{"OBJECTID":5,"EASTING":529946,"NORTHING":170964,"UPRN":100023320903,"POLLINGDISTRICT":"SSL4","POLLINGPLACENAME":"Streatham Baptist Church Hall, Natal Road, London, SW16 6JR","LEGEND2":"SSL4, Streatham Baptist Church Hall, Natal Road, London, SW16 6JR"}},{"type":"Feature","id":6,"geometry":{"type":"Point","coordinates":[-0.14222418637769932,51.414510481335093]},"properties":{"OBJECTID":6,"EASTING":529288,"NORTHING":170025,"UPRN":100023319950,"POLLINGDISTRICT":"SCV4 & SCV6","POLLINGPLACENAME":"Granton Primary School, Granton Road, London, SW16 5AN","LEGEND2":"SCV4 & SCV6, Granton Primary School, Granton Road, London, SW16 5AN"}},{"type":"Feature","id":7,"geometry":{"type":"Point","coordinates":[-0.10350649621182292,51.468108083545417]},"properties":{"OBJECTID":7,"EASTING":531826,"NORTHING":176054,"UPRN":200000472913,"POLLINGDISTRICT":"BNT5D","POLLINGPLACENAME":"Marcus Lipton Youth Club, Minet Road, London, SW9 7UH ","LEGEND2":"BNT5D, Marcus Lipton Youth Club, Minet Road, London, SW9 7UH "}},{"type":"Feature","id":8,"geometry":{"type":"Point","coordinates":[-0.12008316278236379,51.429094552001942]},"properties":{"OBJECTID":8,"EASTING":530786,"NORTHING":171686,"UPRN":100023318311,"POLLINGDISTRICT":"SWE2 & SWE3","POLLINGPLACENAME":"Sunnyhill Primary School, Sunnyhill Road, London, SW16 2UW","LEGEND2":"SWE2 & SWE3, Sunnyhill Primary School, Sunnyhill Road, London, SW16 2UW"}},{"type":"Feature","id":9,"geometry":{"type":"Point","coordinates":[-0.12761741497626278,51.456283510776728]},"properties":{"OBJECTID":9,"EASTING":530185,"NORTHING":174696,"UPRN":200000471924,"POLLINGDISTRICT":"BAL3","POLLINGPLACENAME":"Clapham Youth Centre, 61 Lyham Road, London, SW2 5DH","LEGEND2":"BAL3, Clapham Youth Centre, 61 Lyham Road, London, SW2 5DH"}},{"type":"Feature","id":10,"geometry":{"type":"Point","coordinates":[-0.11268237858199275,51.477554947757781]},"properties":{"OBJECTID":10,"EASTING":531145,"NORTHING":177082,"UPRN":200000456055,"POLLINGDISTRICT":"SEA1V","POLLINGPLACENAME":"Christ Church Brixton, 90 Brixton Road, SW9 6BE","LEGEND2":" SEA1V, Christ Church Brixton, 90 Brixton Road, SW9 6BE"}},{"type":"Feature","id":11,"geometry":{"type":"Point","coordinates":[-0.13261096169321043,51.457682184527684]},"properties":{"OBJECTID":11,"EASTING":null,"NORTHING":null,"UPRN":null,"POLLINGDISTRICT":"CCA3","POLLINGPLACENAME":"St James' Church, Park Hill, SW4 9PB","LEGEND2":"CCA3, St James' Church, Park Hill, SW4 9PB"}},{"type":"Feature","id":12,"geometry":{"type":"Point","coordinates":[-0.10478468250111132,51.454239061102655]},"properties":{"OBJECTID":12,"EASTING":null,"NORTHING":null,"UPRN":null,"POLLINGDISTRICT":"HHL4","POLLINGPLACENAME":"St Jude's Arts Building, Herne Place, SE24 0EN","LEGEND2":"HHL4, St Jude's Arts Building, Herne Place, SE24 0EN"}},{"type":"Feature","id":13,"geometry":{"type":"Point","coordinates":[-0.12743196200304152,51.473132908087479]},"properties":{"OBJECTID":13,"EASTING":530150,"NORTHING":176570,"UPRN":100021897667,"POLLINGDISTRICT":"SWL5V","POLLINGPLACENAME":"Allen Edwards Primary School, Studley Road, Larkhall Lane, London, SW4 6RP","LEGEND2":"SWL5V, Allen Edwards Primary School, Studley Road, Larkhall Lane, London, SW4 6RP"}},{"type":"Feature","id":14,"geometry":{"type":"Point","coordinates":[-0.14278209593871,51.4447442357502]},"properties":{"OBJECTID":14,"EASTING":529164,"NORTHING":173386,"UPRN":200000467195,"POLLINGDISTRICT":"SWT1C","POLLINGPLACENAME":"Henry Cavendish Primary School (Balham), Hydethorpe Road, London, SW12 0JA","LEGEND2":"SWT1C, Henry Cavendish Primary School (Balham), Hydethorpe Road, London, SW12 0JA"}},{"type":"Feature","id":15,"geometry":{"type":"Point","coordinates":[-0.1355670751325774,51.44452178669615]},"properties":{"OBJECTID":15,"EASTING":529666,"NORTHING":173374,"UPRN":200000483857,"POLLINGDISTRICT":"SWT2C","POLLINGPLACENAME":"St Bede’s Catholic Infant & Nursery School, Thornton Road, London, SW12 0LF","LEGEND2":"SWT2C, St Bede’s Catholic Infant & Nursery School, Thornton Road, London, SW12 0LF"}},{"type":"Feature","id":16,"geometry":{"type":"Point","coordinates":[-0.12947390057677588,51.440090150955776]},"properties":{"OBJECTID":16,"EASTING":530102,"NORTHING":172892,"UPRN":200000468629,"POLLINGDISTRICT":"SWT4S","POLLINGPLACENAME":"Telford Park Lawn Tennis Club, 35A Killieser Avenue, London, SW2 4NX","LEGEND2":"SWT4S, Telford Park Lawn Tennis Club, 35A Killieser Avenue, London, SW2 4NX"}},{"type":"Feature","id":17,"geometry":{"type":"Point","coordinates":[-0.12055249297556045,51.485315836586985]},"properties":{"OBJECTID":17,"EASTING":530593,"NORTHING":177937,"UPRN":100023571865,"POLLINGDISTRICT":"VXH3","POLLINGPLACENAME":"St Anne’s Catholic Settlement Hall, 40-46 Harleyford Road, London, SE11 5AY","LEGEND2":"VXH3, St Anne’s Catholic Settlement Hall, 40-46 Harleyford Road, London, SE11 5AY"}},{"type":"Feature","id":18,"geometry":{"type":"Point","coordinates":[-0.10133617055000779,51.442344416829734]},"properties":{"OBJECTID":18,"EASTING":532051,"NORTHING":173193,"UPRN":200000463114,"POLLINGDISTRICT":"WED2D","POLLINGPLACENAME":"Peabody Hill Community Centre, Peabody Hill, London, SE21 8LA","LEGEND2":"WED2D, Peabody Hill Community Centre, Peabody Hill, London, SE21 8LA"}},{"type":"Feature","id":19,"geometry":{"type":"Point","coordinates":[-0.098080177790182493,51.446248473407003]},"properties":{"OBJECTID":19,"EASTING":532266,"NORTHING":173633,"UPRN":10090194699,"POLLINGDISTRICT":"WED3D","POLLINGPLACENAME":"Rosendale Primary School, Rosendale/Turney Road, London, SE21 8LR","LEGEND2":"WED3D, Rosendale Primary School, Rosendale/Turney Road, London, SE21 8LR"}},{"type":"Feature","id":20,"geometry":{"type":"Point","coordinates":[-0.10035488906712822,51.436168394950748]},"properties":{"OBJECTID":20,"EASTING":532137,"NORTHING":172508,"UPRN":100023266656,"POLLINGDISTRICT":"WED4D","POLLINGPLACENAME":"Goodwin Hall, Chatsworth Baptist Church, Chatsworth Way, London, SE27 9HN","LEGEND2":"WED4D, Goodwin Hall, Chatsworth Baptist Church, Chatsworth Way, London, SE27 9HN"}},{"type":"Feature","id":21,"geometry":{"type":"Point","coordinates":[-0.10907539179173066,51.502658193076087]},"properties":{"OBJECTID":21,"EASTING":531340,"NORTHING":179886,"UPRN":200000483488,"POLLINGDISTRICT":"WSB1","POLLINGPLACENAME":"New Cut Housing Co-Operative Community Room, 106 The Cut, London, SE1 8LN","LEGEND2":"WSB1, New Cut Housing Co-Operative Community Room, 106 The Cut, London, SE1 8LN"}},{"type":"Feature","id":22,"geometry":{"type":"Point","coordinates":[-0.11640749547402113,51.457605689582699]},"properties":{"OBJECTID":22,"EASTING":530960,"NORTHING":174863,"UPRN":10008785856,"POLLINGDISTRICT":"BRC1C & BRC1D","POLLINGPLACENAME":"St Matthew’s Tenants Hall, 10 St Matthew’s Road, London, SW2 1NH","LEGEND2":"BRC1C & BRC1D, St Matthew’s Tenants Hall, 10 St Matthew’s Road, London, SW2 1NH\r\n"}},{"type":"Feature","id":23,"geometry":{"type":"Point","coordinates":[-0.11190576614423189,51.447047600201167]},"properties":{"OBJECTID":23,"EASTING":531303,"NORTHING":173697,"UPRN":null,"POLLINGDISTRICT":"BRC4C","POLLINGPLACENAME":"The Rotunda Hall, Hardel Walk, London, SW2 2QG\r\n","LEGEND2":"BRC4C, The Rotunda Hall, Hardel Walk, London, SW2 2QG, London, SW2 2QG\r\n"}},{"type":"Feature","id":24,"geometry":{"type":"Point","coordinates":[-0.14140948655579971,51.458706224838657]},"properties":{"OBJECTID":24,"EASTING":529220,"NORTHING":174941,"UPRN":100023365126,"POLLINGDISTRICT":"CCA2","POLLINGPLACENAME":"Lambeth College Clapham Centre, 45 Clapham Common South Side, SW4 9BL\r\n","LEGEND2":"CCA2, Lambeth College Clapham Centre, 45 Clapham Common South Side, SW4 9BL\r\n"}},{"type":"Feature","id":25,"geometry":{"type":"Point","coordinates":[-0.13364921907163282,51.463106901807365]},"properties":{"OBJECTID":25,"EASTING":529746.63,"NORTHING":175444.07000000001,"UPRN":10090197569,"POLLINGDISTRICT":"CEA2","POLLINGPLACENAME":"Clapham Library, Mary Seacole Centre, 91 Clapham High Street, London, SW4 7DB\r\n","LEGEND2":"CEA2, Clapham Library, Mary Seacole Centre, 91 Clapham High Street, London, SW4 7DB\r\n"}},{"type":"Feature","id":26,"geometry":{"type":"Point","coordinates":[-0.14691047672643456,51.468613287218488]},"properties":{"OBJECTID":26,"EASTING":528810,"NORTHING":176033,"UPRN":200000466063,"POLLINGDISTRICT":"CTN1","POLLINGPLACENAME":"Heathbrook Primary School, St Rule Street, London, SW8 3EH\r\n","LEGEND2":"CTN1, Heathbrook Primary School, St Rule Street, London, SW8 3EH\r\n"}},{"type":"Feature","id":27,"geometry":{"type":"Point","coordinates":[-0.097889271604166883,51.462963085374369]},"properties":{"OBJECTID":27,"EASTING":532231,"NORTHING":175492,"UPRN":null,"POLLINGDISTRICT":"HHL2","POLLINGPLACENAME":"St Saviour’s Church Hall, Herne Hill Road, SE24 0AY\r\n","LEGEND2":"HHL2, St Saviour’s Church Hall, Herne Hill Road, SE24 0AY\r\n"}},{"type":"Feature","id":28,"geometry":{"type":"Point","coordinates":[-0.1059427383602486,51.43276487530126]},"properties":{"OBJECTID":28,"EASTING":531758.41000000003,"NORTHING":172119.47,"UPRN":10094056474,"POLLINGDISTRICT":"KNH2","POLLINGPLACENAME":"West Norwood Health and Leisure Centre, 25 Devane Way, London, SE27 0DF\r\n","LEGEND2":"KNH2, West Norwood Health and Leisure Centre, 25 Devane Way, London, SE27 0DF\r\n"}},{"type":"Feature","id":29,"geometry":{"type":"Point","coordinates":[-0.12875712129810263,51.420654304061145]},"properties":{"OBJECTID":29,"EASTING":530207,"NORTHING":170732,"UPRN":200000482620,"POLLINGDISTRICT":"SCV2","POLLINGPLACENAME":"Immanuel & St Andrew’s Church Hall, 452 Streatham High Road, Just Past Westwell Approach, London, SW16 3PY\r\n","LEGEND2":"Immanuel & St Andrew’s Church Hall, 452 Streatham High Road, Just Past Westwell Approach, London, SW16 3PY\r\n"}},{"type":"Feature","id":30,"geometry":{"type":"Point","coordinates":[-0.13987870950551837,51.413834841109477]},"properties":{"OBJECTID":30,"EASTING":529453,"NORTHING":169954,"UPRN":null,"POLLINGDISTRICT":"SCV5","POLLINGPLACENAME":"Holy Redeemer Church, The Parish Hall, Churchmore Road, SW16 5UZ\r\n","LEGEND2":"SCV5, Holy Redeemer Church, The Parish Hall, Churchmore Road, SW16 5UZ\r\n"}},{"type":"Feature","id":31,"geometry":{"type":"Point","coordinates":[-0.12130469751703277,51.47611938969554]},"properties":{"OBJECTID":31,"EASTING":530567,"NORTHING":176913,"UPRN":200000476675,"POLLINGDISTRICT":"SWL3V","POLLINGPLACENAME":"Mursell Hall, Portland Grove, London, SW8 1JE\r\n","LEGEND2":"SWL3V, Mursell Hall, Portland Grove, London, SW8 1JE\r\n"}},{"type":"Feature","id":32,"geometry":{"type":"Point","coordinates":[-0.13300805870984622,51.470577977167061]},"properties":{"OBJECTID":32,"EASTING":529770,"NORTHING":176276,"UPRN":10090197280,"POLLINGDISTRICT":"SWL4C","POLLINGPLACENAME":"Springfield Community and Medical Centre, Coronation Hall, 110 Union Road, London, SW8 2SH\r\n","LEGEND2":"SWL4C, Springfield Community and Medical Centre, Coronation Hall, 110 Union Road, London, SW8 2SH\r\n"}},{"type":"Feature","id":33,"geometry":{"type":"Point","coordinates":[-0.12916033004238719,51.477701793213257]},"properties":{"OBJECTID":33,"EASTING":530017,"NORTHING":177075,"UPRN":200000485936,"POLLINGDISTRICT":"SWL2V","POLLINGPLACENAME":"Lansdowne Green Community Hall, Side of 283-291 Wandsworth Road, London, SW8 2ND","LEGEND2":"SWL2V, Lansdowne Green Community Hall, Side of 283-291 Wandsworth Road, London, SW8 2ND"}},{"type":"Feature","id":34,"geometry":{"type":"Point","coordinates":[-0.11138944641951219,51.500708075845445]},"properties":{"OBJECTID":34,"EASTING":531185,"NORTHING":179665,"UPRN":100023225523,"POLLINGDISTRICT":"WSB2","POLLINGPLACENAME":"Oasis Academy Johanna, Johanna Street, Entrance from Lower Marsh, London, SE1 7RH\r\n","LEGEND2":"WSB2, Oasis Academy Johanna, Johanna Street, Entrance from Lower Marsh, London, SE1 7RH\r\n"}},{"type":"Feature","id":35,"geometry":{"type":"Point","coordinates":[-0.11970505353660107,51.438656806391016]},"properties":{"OBJECTID":35,"EASTING":530785,"NORTHING":172750,"UPRN":null,"POLLINGDISTRICT":"SHE2","POLLINGPLACENAME":"St Margaret The Queen, Barcombe Avenue, London, SW2 3BH","LEGEND2":"SHE2, St Margaret The Queen, Barcombe Avenue, Entry via Faygate Road, London, SW2 3BH"}},{"type":"Feature","id":36,"geometry":{"type":"Point","coordinates":[-0.12627857663541708,51.46367214780161]},"properties":{"OBJECTID":36,"EASTING":530257,"NORTHING":175520,"UPRN":100023389658,"POLLINGDISTRICT":"CEA1","POLLINGPLACENAME":"Fenwick Hall, 128 Willington Road, London, SW9 9ND","LEGEND2":"CEA1, Fenwick Hall, Fenwick Estate, 128 Willington Road, London, SW9 9ND"}},{"type":"Feature","id":37,"geometry":{"type":"Point","coordinates":[-0.13212719034801843,51.453001163918579]},"properties":{"OBJECTID":37,"EASTING":529881,"NORTHING":174323,"UPRN":100023571403,"POLLINGDISTRICT":"CPK1C","POLLINGPLACENAME":"Glenbrook Primary School, Clarence Crescent, London, SW4 8LD","LEGEND2":"CPK1C, Glenbrook Primary School, Clarence Crescent, London, SW4 8LD"}},{"type":"Feature","id":38,"geometry":{"type":"Point","coordinates":[-0.10339986360084706,51.432125981197743]},"properties":{"OBJECTID":38,"EASTING":531937,"NORTHING":172053,"UPRN":200000474415,"POLLINGDISTRICT":"KNH3","POLLINGPLACENAME":"St Luke's Church, Lower Hall, Knight's Hill, London, SE27 0HS","LEGEND2":"KNH3, St Luke's Church, Lower Hall, Knight's Hill, London, SE27 0HS\r\n"}},{"type":"Feature","id":39,"geometry":{"type":"Point","coordinates":[-0.1172847670677815,51.48457098207183]},"properties":{"OBJECTID":39,"EASTING":530822,"NORTHING":177860,"UPRN":200000465663,"POLLINGDISTRICT":"OVL1","POLLINGPLACENAME":"St Marks C.E. Primary and Nursery School, Harleyford Road, London, SE11 5SL","LEGEND2":"OVL1, St Mark's C.E. Primary and Nursery School, Harleyford Road, London, SE11 5SL"}},{"type":"Feature","id":40,"geometry":{"type":"Point","coordinates":[-0.093731918429933517,51.436969110932495]},"properties":{"OBJECTID":40,"EASTING":532595,"NORTHING":172609,"UPRN":10023850989,"POLLINGDISTRICT":"WED5D","POLLINGPLACENAME":"Elmworth Grove Community Hall, Elmworth Grove, London SE21 8RD","LEGEND2":"WED5D, Elmworth Grove Community Hall, Elmworth Grove, London SE21 8RD"}},{"type":"Feature","id":41,"geometry":{"type":"Point","coordinates":[-0.10941369653367677,51.474282606908574]},"properties":{"OBJECTID":41,"EASTING":531398,"NORTHING":176730,"UPRN":null,"POLLINGDISTRICT":"MYF2","POLLINGPLACENAME":"Myatts Field North Community Centre, 24 Crawshay Road, London SW9 6FZ","LEGEND2":"MYF2, Myatts Field North Community Centre, 24 Crawshay Road, London SW9 6FZ"}},{"type":"Feature","id":42,"geometry":{"type":"Point","coordinates":[-0.11503546740593919,51.49135285647656]},"properties":{"OBJECTID":42,"EASTING":530958.75,"NORTHING":178618.17000000001,"UPRN":10090199500,"POLLINGDISTRICT":"KEN2","POLLINGPLACENAME":"Black Prince Community Trust, 5 Beaufoy Walk, London, SE11 6AA","LEGEND2":"KEN2, Black Prince Community Trust, 5 Beaufoy Walk, London, SE11 6AA"}},{"type":"Feature","id":43,"geometry":{"type":"Point","coordinates":[-0.090051609011605693,51.426891110738786]},"properties":{"OBJECTID":43,"EASTING":532880,"NORTHING":171495,"UPRN":100023571778,"POLLINGDISTRICT":"GHL2","POLLINGPLACENAME":"Kingswood Primary School (Upper Site), Gipsy Road, London, SE27 9RD","LEGEND2":"GHL2, Kingswood Primary School (Upper Site), Gipsy Road, London, SE27 9RD"}},{"type":"Feature","id":44,"geometry":{"type":"Point","coordinates":[-0.13986510656830645,51.446876935122177]},"properties":{"OBJECTID":44,"EASTING":529361,"NORTHING":173628,"UPRN":10008788573,"POLLINGDISTRICT":"CPK4C","POLLINGPLACENAME":"Weir Link Community Centre, 33 Weir Road London SW12 0NU","LEGEND2":"CPK4C, Weir Link Community Centre, 33 Weir Road London SW12 0NU"}},{"type":"Feature","id":45,"geometry":{"type":"Point","coordinates":[-0.1211801266977872,51.450047393540409]},"properties":{"OBJECTID":45,"EASTING":530650,"NORTHING":174014,"UPRN":null,"POLLINGDISTRICT":"BRC5C","POLLINGPLACENAME":"Roupell Park Community Centre, 145 Brixton Hill, SW2 1AH","LEGEND2":"BRC5C, Roupell Park Community Centre, 145 Brixton Hill, SW2 1AH"}},{"type":"Feature","id":46,"geometry":{"type":"Point","coordinates":[-0.11011865669431575,51.45896128001602]},"properties":{"OBJECTID":46,"EASTING":531393,"NORTHING":175025,"UPRN":10023851796,"POLLINGDISTRICT":"BWR3","POLLINGPLACENAME":"Dexter Adventure Playground, 2-30 Railton Road, London, SE24 0LP","LEGEND2":"BWR3, Dexter Adventure Playground, 2-30 Railton Road, London, SE24 0LP"}},{"type":"Feature","id":47,"geometry":{"type":"Point","coordinates":[-0.10928626911414444,51.444963987188025]},"properties":{"OBJECTID":47,"EASTING":531491,"NORTHING":173470,"UPRN":200000484685,"POLLINGDISTRICT":"WED1C & WED1D","POLLINGPLACENAME":"Holy Trinity and St Matthias Church, Church Lobby, 51 Trinity Rise, London, SW2 2QP\n","LEGEND2":"WED1C & WED1D, Holy Trinity and St Matthias Church, Church Lobby, 51 Trinity Rise, London, SW2 2QP\n"}},{"type":"Feature","id":48,"geometry":{"type":"Point","coordinates":[-0.12281378596619748,51.461449465436715]},"properties":{"OBJECTID":48,"EASTING":530504,"NORTHING":175279,"UPRN":200000462111,"POLLINGDISTRICT":"BAL2","POLLINGPLACENAME":"Brixton Seventh Day Adventist Church Hall, Santley Street, London, SW4 7QG","LEGEND2":"BAL2, Brixton Seventh Day Adventist Church Hall, Santley Street, London, SW4 7QG"}},{"type":"Feature","id":49,"geometry":{"type":"Point","coordinates":[-0.12375958847038791,51.453110395814889]},"properties":{"OBJECTID":49,"EASTING":530462.05000000005,"NORTHING":174350.01000000001,"UPRN":10094956694,"POLLINGDISTRICT":"BAL5","POLLINGPLACENAME":"Windmill Centre, 100 Blenheim Gardens, Windmill Gardens, London, SW2 5DA","LEGEND2":"BAL5, Windmill Centre, 100 Blenheim Gardens, Windmill Gardens, London, SW2 5DA"}},{"type":"Feature","id":50,"geometry":{"type":"Point","coordinates":[-0.11322347338270798,51.468147985418142]},"properties":{"OBJECTID":50,"EASTING":531151,"NORTHING":176041,"UPRN":100023387135,"POLLINGDISTRICT":"BNT3C","POLLINGPLACENAME":"We Are 336, 336 Brixton Road, London, SW9 7AA","LEGEND2":"BNT3C, We Are 336, 336 Brixton Road, London, SW9 7AA"}},{"type":"Feature","id":51,"geometry":{"type":"Point","coordinates":[-0.10855323815882689,51.467899879261275]},"properties":{"OBJECTID":51,"EASTING":531476.07999999996,"NORTHING":176021.78,"UPRN":10093378222,"POLLINGDISTRICT":"BNT4D","POLLINGPLACENAME":"St John’s Angell Town CE Primary School, 85 Angell Road, London, SW9 7HH","LEGEND2":"BNT4D, St John’s Angell Town CE Primary School, 85 Angell Road, London, SW9 7HH"}},{"type":"Feature","id":52,"geometry":{"type":"Point","coordinates":[-0.11385781476715227,51.452411789419472]},"properties":{"OBJECTID":52,"EASTING":531152,"NORTHING":174290,"UPRN":10000445340,"POLLINGDISTRICT":"BRC2C & BRC3C","POLLINGPLACENAME":"Jubilee Primary School & Children’s Centre, Tulse Hill, London, SW2 2JE","LEGEND2":"BRC2C & BRC3C, Jubilee Primary School & Children’s Centre, Tulse Hill, London, SW2 2JE"}},{"type":"Feature","id":53,"geometry":{"type":"Point","coordinates":[-0.11472316442898985,51.461103786739002]},"properties":{"OBJECTID":53,"EASTING":531067,"NORTHING":175255,"UPRN":200000455963,"POLLINGDISTRICT":"BWR1","POLLINGPLACENAME":"Brixton Library, Brixton Oval, London, SW2 1JQ","LEGEND2":"BWR1, Brixton Library, Brixton Oval, London, SW2 1JQ"}},{"type":"Feature","id":54,"geometry":{"type":"Point","coordinates":[-0.10730257302602143,51.461964400162771]},"properties":{"OBJECTID":54,"EASTING":531580,"NORTHING":175364,"UPRN":200000466650,"POLLINGDISTRICT":"BWR2","POLLINGPLACENAME":"Hill Mead Primary School, Hillmead Drive, Moorland Road, London, SW9 8UE","LEGEND2":"BWR2, Hill Mead Primary School, Hillmead Drive, Moorland Road, London, SW9 8UE"}},{"type":"Feature","id":55,"geometry":{"type":"Point","coordinates":[-0.14169530537830416,51.45202015242532]},"properties":{"OBJECTID":55,"EASTING":529219,"NORTHING":174197,"UPRN":200000484715,"POLLINGDISTRICT":"CCA1 & CCA4","POLLINGPLACENAME":"Hawkesworth Hall, Hawkesworth House, Poynders Road, London, SW4 8NA","LEGEND2":"CCA1 & CCA4, Hawkesworth Hall, Hawkesworth House, Poynders Road, London, SW4 8NA"}},{"type":"Feature","id":56,"geometry":{"type":"Point","coordinates":[-0.13385546878234339,51.461095191913515]},"properties":{"OBJECTID":56,"EASTING":529738,"NORTHING":175220,"UPRN":200000490556,"POLLINGDISTRICT":"CEA3","POLLINGPLACENAME":"William Bonney Community Centre, 46 William Bonney Estate, London, SW4 7JA","LEGEND2":"CEA3, William Bonney Community Centre, 46 William Bonney Estate, London, SW4 7JA"}},{"type":"Feature","id":57,"geometry":{"type":"Point","coordinates":[-0.1381013844587953,51.459346174965717]},"properties":{"OBJECTID":57,"EASTING":529448,"NORTHING":175018,"UPRN":100023677209,"POLLINGDISTRICT":"CEA4","POLLINGPLACENAME":"St Mary’s R.C. Primary School, Crescent Lane, Clapham, London, SW4 9QJ","LEGEND2":"CEA4, St Mary’s R.C. Primary School, Crescent Lane, Clapham, London, SW4 9QJ"}},{"type":"Feature","id":58,"geometry":{"type":"Point","coordinates":[-0.13002959200088274,51.446214123794377]},"properties":{"OBJECTID":58,"EASTING":530046,"NORTHING":173572,"UPRN":200000473778,"POLLINGDISTRICT":"CPK5C & CPK5S","POLLINGPLACENAME":"New Park Road Baptist Church, New Park Road, London, SW2 4LH","LEGEND2":"CPK5C & CPK5S, New Park Road Baptist Church, New Park Road, London, SW2 4LH"}},{"type":"Feature","id":59,"geometry":{"type":"Point","coordinates":[-0.12956310022376133,51.470666958242475]},"properties":{"OBJECTID":59,"EASTING":530009,"NORTHING":176292,"UPRN":200000479834,"POLLINGDISTRICT":"CTN2 & SWL6V & SWL6C","POLLINGPLACENAME":"Larkhall Primary School, Lower School Hall, Smedley Street, London, SW4 6PH","LEGEND2":"CTN2 & SWL6V & SWL6C, Larkhall Primary School, Lower School Hall, Smedley Street, London, SW4 6PH"}},{"type":"Feature","id":60,"geometry":{"type":"Point","coordinates":[-0.14741342653656625,51.463657286793477]},"properties":{"OBJECTID":60,"EASTING":528789,"NORTHING":175481,"UPRN":200000485617,"POLLINGDISTRICT":"CTN3","POLLINGPLACENAME":"Macaulay C.E. Primary School, Victoria Rise, Clapham, London, SW4 0NU","LEGEND2":"CTN3, Macaulay C.E. Primary School, Victoria Rise, Clapham, London, SW4 0NU"}},{"type":"Feature","id":61,"geometry":{"type":"Point","coordinates":[-0.13753554224788342,51.464409061514502]},"properties":{"OBJECTID":61,"EASTING":529473,"NORTHING":175582,"UPRN":200000454983,"POLLINGDISTRICT":"CTN4","POLLINGPLACENAME":"Clapham Manor Primary School, Belmont Road, London, SW4 0BZ","LEGEND2":"CTN4, Clapham Manor Primary School, Belmont Road, London, SW4 0BZ"}},{"type":"Feature","id":62,"geometry":{"type":"Point","coordinates":[-0.09054795152932002,51.431548517812125]},"properties":{"OBJECTID":62,"EASTING":532832,"NORTHING":172012,"UPRN":100021826388,"POLLINGDISTRICT":"GHL1","POLLINGPLACENAME":"Emmanuel Youth and Community Centre, 94-96 Clive Road, London, SE21 8BU ","LEGEND2":"GHL1, Emmanuel Youth and Community Centre, 94-96 Clive Road, London, SE21 8BU "}},{"type":"Feature","id":63,"geometry":{"type":"Point","coordinates":[-0.086415276034256971,51.425096141899594]},"properties":{"OBJECTID":63,"EASTING":533138,"NORTHING":171302,"UPRN":200000455711,"POLLINGDISTRICT":"GHL3","POLLINGPLACENAME":"Berridge Road Estate Community Resource Centre, 13-17 Bridgetown Close, London, SE19 1JZ","LEGEND2":"GHL3, Berridge Road Estate Community Resource Centre, 13-17 Bridgetown Close, London, SE19 1JZ"}},{"type":"Feature","id":64,"geometry":{"type":"Point","coordinates":[-0.081654070346115881,51.422347400014459]},"properties":{"OBJECTID":64,"EASTING":533477,"NORTHING":171005,"UPRN":null,"POLLINGDISTRICT":"GHL4","POLLINGPLACENAME":"Paxton Primary School, Woodland Road, London, SE19 1PA","LEGEND2":"GHL4, Paxton Primary School, Woodland Road, London, SE19 1PA"}},{"type":"Feature","id":65,"geometry":{"type":"Point","coordinates":[-0.10133639475378617,51.460033359158274]},"properties":{"OBJECTID":65,"EASTING":532000,"NORTHING":175160,"UPRN":200000524753,"POLLINGDISTRICT":"HHL3","POLLINGPLACENAME":"Jessop Primary School, Children’s Centre, Lowden Road, London, SE24 0BJ","LEGEND2":"HHL3, Jessop Primary School, Children’s Centre, Lowden Road, London, SE24 0BJ"}},{"type":"Feature","id":66,"geometry":{"type":"Point","coordinates":[-0.10993682435077262,51.491593006836531]},"properties":{"OBJECTID":66,"EASTING":531312,"NORTHING":178654,"UPRN":200000477868,"POLLINGDISTRICT":"KEN3","POLLINGPLACENAME":"Archbishop Sumner C.E. School, Reedworth Street, SE11 4PH","LEGEND2":"KEN3, Archbishop Sumner C.E. School, Reedworth Street, SE11 4PH"}},{"type":"Feature","id":67,"geometry":{"type":"Point","coordinates":[-0.11008155732791521,51.488789611137399]},"properties":{"OBJECTID":67,"EASTING":531310,"NORTHING":178342,"UPRN":100023229223,"POLLINGDISTRICT":"KEN4","POLLINGPLACENAME":"Durning Library, 167 Kennington Lane, London, SE11 4HF","LEGEND2":"KEN4, Durning Library, 167 Kennington Lane, London, SE11 4HF"}},{"type":"Feature","id":68,"geometry":{"type":"Point","coordinates":[-0.11186344747029164,51.484708639560957]},"properties":{"OBJECTID":68,"EASTING":531198,"NORTHING":177885,"UPRN":200000459612,"POLLINGDISTRICT":"KEN5","POLLINGPLACENAME":"Henry Fawcett Primary School, Bowling Green Street, London, SE11 5BZ","LEGEND2":"KEN5, Henry Fawcett Primary School, Bowling Green Street, London, SE11 5BZ"}},{"type":"Feature","id":69,"geometry":{"type":"Point","coordinates":[-0.10557135755427136,51.425979369036405]},"properties":{"OBJECTID":69,"EASTING":531803.72999999998,"NORTHING":171365.59,"UPRN":10091121585,"POLLINGDISTRICT":"KNH4","POLLINGPLACENAME":"West Norwood Fire Station, 210 Knight’s Hill, London, SE27 0QA","LEGEND2":"KNH4, West Norwood Fire Station, 210 Knight’s Hill, London, SE27 0QA"}},{"type":"Feature","id":70,"geometry":{"type":"Point","coordinates":[-0.099879952242997949,51.426808135732209]},"properties":{"OBJECTID":70,"EASTING":532197,"NORTHING":171468,"UPRN":200000471131,"POLLINGDISTRICT":"KNH5","POLLINGPLACENAME":"St Luke’s C.E. Primary School, Linton Grove, West Norwood, London, SE27 0DZ","LEGEND2":"KNH5, St Luke’s C.E. Primary School, Linton Grove, West Norwood, London, SE27 0DZ"}},{"type":"Feature","id":71,"geometry":{"type":"Point","coordinates":[-0.10899550567770171,51.423430484853377]},"properties":{"OBJECTID":71,"EASTING":531573,"NORTHING":171076,"UPRN":200000460906,"POLLINGDISTRICT":"KNH6","POLLINGPLACENAME":"Crown Lane Primary School, Crown Lane, Streatham, London, SW16 3HX","LEGEND2":"KNH6, Crown Lane Primary School, Crown Lane, Streatham, London, SW16 3HX"}},{"type":"Feature","id":72,"geometry":{"type":"Point","coordinates":[-0.10812351590631804,51.476231205373693]},"properties":{"OBJECTID":72,"EASTING":531482,"NORTHING":176949,"UPRN":100023571219,"POLLINGDISTRICT":"MYF1","POLLINGPLACENAME":"Christ Church (Brixton) C.E. School, Cancell Road, London, SW9 6HN","LEGEND2":"MYF1, Christ Church (Brixton) C.E. School, Cancell Road, London, SW9 6HN"}},{"type":"Feature","id":73,"geometry":{"type":"Point","coordinates":[-0.10539023539149628,51.471295011245878]},"properties":{"OBJECTID":73,"EASTING":531686,"NORTHING":176405,"UPRN":100021859495,"POLLINGDISTRICT":"MYF3 & MYF4","POLLINGPLACENAME":"Minet Library, 52 Knatchbull Road, London, SE5 9QY","LEGEND2":"MYF3 & MYF4, Minet Library, 52 Knatchbull Road, London, SE5 9QY"}},{"type":"Feature","id":74,"geometry":{"type":"Point","coordinates":[-0.1149127531619054,51.482014925123543]},"properties":{"OBJECTID":74,"EASTING":530994,"NORTHING":177580,"UPRN":100023570718,"POLLINGDISTRICT":"OVL3","POLLINGPLACENAME":"Ashmole Primary School, Ashmole Street, London, SW8 1NT","LEGEND2":"OVL3, Ashmole Primary School, Ashmole Street, London, SW8 1NT"}},{"type":"Feature","id":75,"geometry":{"type":"Point","coordinates":[-0.12164753744736391,51.479344258081191]},"properties":{"OBJECTID":75,"EASTING":530534,"NORTHING":177271,"UPRN":10090197815,"POLLINGDISTRICT":"OVL4","POLLINGPLACENAME":"Bolney Meadow Community Center, 31 Bolney Street, London, SW8 1EZ","LEGEND2":"OVL4, Bolney Meadow Community Center, 31 Bolney Street, London, SW8 1EZ"}},{"type":"Feature","id":76,"geometry":{"type":"Point","coordinates":[-0.12753505714020624,51.424380352038298]},"properties":{"OBJECTID":76,"EASTING":520831,"NORTHING":171153,"UPRN":null,"POLLINGDISTRICT":"SCV1","POLLINGPLACENAME":"St Andrew's R.C. Primary School, Polworth Road, London, SW16 2ET","LEGEND2":"SCV1, St Andrew's R.C. Primary School, Polworth Road, London, SW16 2ET"}},{"type":"Feature","id":77,"geometry":{"type":"Point","coordinates":[-0.12778197894885573,51.413894139561386]},"properties":{"OBJECTID":77,"EASTING":530294,"NORTHING":169982,"UPRN":100021836553,"POLLINGDISTRICT":"SCV3","POLLINGPLACENAME":"St Bartholomew’s Church Hall, 159 Ellison Road, London, SW16 5DE","LEGEND2":"SCV3, St Bartholomew’s Church Hall, 159 Ellison Road, London, SW16 5DE"}},{"type":"Feature","id":78,"geometry":{"type":"Point","coordinates":[-0.11707187170338143,51.471896873565086]},"properties":{"OBJECTID":78,"EASTING":530873,"NORTHING":176451,"UPRN":200000481058,"POLLINGDISTRICT":"SEA2V","POLLINGPLACENAME":"St Michael’s Church Hall, Stockwell Park Road, London, SW9 0DA","LEGEND2":"SEA2V, St Michael’s Church Hall, Stockwell Park Road, London, SW9 0DA"}},{"type":"Feature","id":79,"geometry":{"type":"Point","coordinates":[-0.12244543406559953,51.468673732531613]},"properties":{"OBJECTID":79,"EASTING":530509,"NORTHING":176083,"UPRN":200000467628,"POLLINGDISTRICT":"SEA3C","POLLINGPLACENAME":"St Andrew’s C.E. Primary School, Kay Road, London, SW9 9DE","LEGEND2":"SEA3C, St Andrew’s C.E. Primary School, Kay Road, London, SW9 9DE"}},{"type":"Feature","id":80,"geometry":{"type":"Point","coordinates":[-0.11558987259982667,51.440056520991085]},"properties":{"OBJECTID":80,"EASTING":531067,"NORTHING":172913,"UPRN":100023352500,"POLLINGDISTRICT":"SHE1","POLLINGPLACENAME":"Streatham Wells Primary School, 50 Palace Road, London, SW2 3NJ","LEGEND2":"SHE1, Streatham Wells Primary School, 50 Palace Road, London, SW2 3NJ"}},{"type":"Feature","id":81,"geometry":{"type":"Point","coordinates":[-0.12369226648935326,51.436651664821717]},"properties":{"OBJECTID":81,"EASTING":530513.59999999998,"NORTHING":172519.92000000001,"UPRN":10090203456,"POLLINGDISTRICT":"SHE3","POLLINGPLACENAME":"The Livity School, 35A Adare Walk, London, SW16 2PW","LEGEND2":"SHE3, The Livity School, 35A Adare Walk, London, SW16 2PW"}},{"type":"Feature","id":82,"geometry":{"type":"Point","coordinates":[-0.11569058582492971,51.436559935186978]},"properties":{"OBJECTID":82,"EASTING":531070,"NORTHING":172524,"UPRN":200000466729,"POLLINGDISTRICT":"SHE4","POLLINGPLACENAME":"Hitherfield Children’s Centre, Hitherfield Road, London, SW16 2JQ","LEGEND2":"SHE4, Hitherfield Children’s Centre, Hitherfield Road, London, SW16 2JQ"}},{"type":"Feature","id":83,"geometry":{"type":"Point","coordinates":[-0.11327612594458525,51.442780084817443]},"properties":{"OBJECTID":83,"EASTING":531220,"NORTHING":173220,"UPRN":200000466451,"POLLINGDISTRICT":"SMA1C","POLLINGPLACENAME":"St Martin’s Community Centre, Tulse Hill, Abbots Park, London, SW2 3QB","LEGEND2":"SMA1C, St Martin’s Community Centre, Tulse Hill, Abbots Park, London, SW2 3QB"}},{"type":"Feature","id":84,"geometry":{"type":"Point","coordinates":[-0.10721953634953603,51.439957574799642]},"properties":{"OBJECTID":84,"EASTING":531649,"NORTHING":172917,"UPRN":100023352569,"POLLINGDISTRICT":"SMA3S","POLLINGPLACENAME":"Tulse Hill Methodist Church. 138 Christchurch Road, London, SW2 3DQ","LEGEND2":"SMA3S, Tulse Hill Methodist Church. 138 Christchurch Road, London, SW2 3DQ"}},{"type":"Feature","id":85,"geometry":{"type":"Point","coordinates":[-0.1024489939265326,51.43875630425638]},"properties":{"OBJECTID":85,"EASTING":531984,"NORTHING":172792,"UPRN":200000462875,"POLLINGDISTRICT":"SMA4D","POLLINGPLACENAME":"Elmgreen Secondary School Elmcourt Road London SE27 9BZ","LEGEND2":"SMA4D, Elmgreen Secondary School Elmcourt Road London SE27 9BZ"}},{"type":"Feature","id":86,"geometry":{"type":"Point","coordinates":[-0.13192621647812641,51.437116693973799]},"properties":{"OBJECTID":86,"EASTING":529940,"NORTHING":172557,"UPRN":100021832485,"POLLINGDISTRICT":"SSL1","POLLINGPLACENAME":"Henry Cavendish Primary School (Streatham), Dingley Lane, Woodfield Avenue, London, SW16 1AU","LEGEND2":"SSL1, Henry Cavendish Primary School (Streatham), Dingley Lane, Woodfield Avenue, London, SW16 1AU"}},{"type":"Feature","id":87,"geometry":{"type":"Point","coordinates":[-0.13527048475700185,51.427623048212453]},"properties":{"OBJECTID":87,"EASTING":529734.43000000005,"NORTHING":171495.38,"UPRN":100023320542,"POLLINGDISTRICT":"SSL3","POLLINGPLACENAME":"St Leonard’s C.E. Primary School, 42 Mitcham Lane, London, SW16 6NP","LEGEND2":"SSL3, St Leonard’s C.E. Primary School, 42 Mitcham Lane, London, SW16 6NP"}},{"type":"Feature","id":88,"geometry":{"type":"Point","coordinates":[-0.131218325199531,51.475972046228009]},"properties":{"OBJECTID":88,"EASTING":529879,"NORTHING":176879,"UPRN":100023383958,"POLLINGDISTRICT":"SWL1V & SWL1C","POLLINGPLACENAME":"Springfield Methodist Church Hall, 200 Wandsworth Road, London, SW8 2JU","LEGEND2":"SWL1V & SWL1C, Springfield Methodist Church Hall, 200 Wandsworth Road, London, SW8 2JU"}},{"type":"Feature","id":89,"geometry":{"type":"Point","coordinates":[-0.11943067476009875,51.455846682080505]},"properties":{"OBJECTID":89,"EASTING":530755,"NORTHING":174662,"UPRN":null,"POLLINGDISTRICT":"BAL4","POLLINGPLACENAME":"Corpus Christi Church, 11 Trent Road, London, SW2 5BJ","LEGEND2":"BAL4, Corpus Christi Church, 11 Trent Road, London, SW2 5BJ"}},{"type":"Feature","id":90,"geometry":{"type":"Point","coordinates":[-0.098833891591108433,51.468985624464423]},"properties":{"OBJECTID":90,"EASTING":532148,"NORTHING":176160,"UPRN":200000471101,"POLLINGDISTRICT":"HHL1","POLLINGPLACENAME":"St Matthew’s Church Hall, 115 Lilford Road, London, SE5 9HY","LEGEND2":"HHL1, St Matthew’s Church Hall, 115 Lilford Road, London, SE5 9HY"}},{"type":"Feature","id":91,"geometry":{"type":"Point","coordinates":[-0.11803818437866406,51.466606692653528]},"properties":{"OBJECTID":91,"EASTING":530821,"NORTHING":175861,"UPRN":100023389736,"POLLINGDISTRICT":"BNT1C & BNT2C","POLLINGPLACENAME":"Stockwell Primary School, Stockwell Road, London, SW9 9TG","LEGEND2":"BNT1C & BNT2C, Stockwell Primary School, Stockwell Road, London, SW9 9TG"}},{"type":"Feature","id":92,"geometry":{"type":"Point","coordinates":[-0.12665832352504366,51.461780749230151]},"properties":{"OBJECTID":92,"EASTING":530236,"NORTHING":175309,"UPRN":null,"POLLINGDISTRICT":"BAL1","POLLINGPLACENAME":"Brixton Baptist Church, Corrance Road, London, SW2 5RD","LEGEND2":"BAL1, Brixton Baptist Church, Corrance Road, London, SW2 5RD"}},{"type":"Feature","id":93,"geometry":{"type":"Point","coordinates":[-0.11272285276640383,51.495288927950739]},"properties":{"OBJECTID":93,"EASTING":531108,"NORTHING":179060,"UPRN":200000489602,"POLLINGDISTRICT":"KEN1 & WSB4","POLLINGPLACENAME":"Chandler Community Hall, 15 Lambeth Walk, London, SE11 6DU","LEGEND2":"KEN1 & WSB4, Chandler Community Hall, 15 Lambeth Walk, London, SE11 6DU"}},{"type":"Feature","id":94,"geometry":{"type":"Point","coordinates":[-0.12545610542503335,51.481293660014927]},"properties":{"OBJECTID":94,"EASTING":530264,"NORTHING":177481,"UPRN":100023384015,"POLLINGDISTRICT":"VXH4","POLLINGPLACENAME":"Wyvil Primary School, Wyvil Road, London, SW8 2TJ","LEGEND2":"VXH4, Wyvil Primary School, Wyvil Road, London, SW8 2TJ"}},{"type":"Feature","id":95,"geometry":{"type":"Point","coordinates":[-0.10832021066994448,51.442223560701592]},"properties":{"OBJECTID":95,"EASTING":531566,"NORTHING":173167,"UPRN":200000524644,"POLLINGDISTRICT":"SMA2D","POLLINGPLACENAME":"Deronda Hall, Club Room, 5 Jarrett Close, London, SW2 3DG","LEGEND2":"SMA2D, Deronda Hall, Club Room, 5 Jarrett Close, London, SW2 3DG"}},{"type":"Feature","id":96,"geometry":{"type":"Point","coordinates":[-0.11768141503064419,51.488929822526394]},"properties":{"OBJECTID":96,"EASTING":530782,"NORTHING":178344,"UPRN":100023230109,"POLLINGDISTRICT":"VXH1 & VXH2","POLLINGPLACENAME":"Vauxhall Primary School, Vauxhall Street, London, SE11 5LG","LEGEND2":"VXH1 & VXH2, Vauxhall Primary School, Vauxhall Street, London, SE11 5LG"}},{"type":"Feature","id":97,"geometry":{"type":"Point","coordinates":[-0.12786941783919187,51.446251573082201]},"properties":{"OBJECTID":97,"EASTING":530196,"NORTHING":173580,"UPRN":200000482772,"POLLINGDISTRICT":"SWT3S","POLLINGPLACENAME":"Knight’s Youth Centre, 27 Streatham Place, London, SW2 4QQ","LEGEND2":"SWT3S, Knight’s Youth Centre, 27 Streatham Place, London, SW2 4QQ"}},{"type":"Feature","id":98,"geometry":{"type":"Point","coordinates":[-0.12180925607492482,51.444886604304045]},"properties":{"OBJECTID":98,"EASTING":530621,"NORTHING":173439,"UPRN":100021822891,"POLLINGDISTRICT":"BRC6C","POLLINGPLACENAME":"Christ Church Streatham, 3 Christchurch Road, SW2 3ET","LEGEND2":"BRC6C, Christ Church Streatham, 3 Christchurch Road, SW2 3ET"}},{"type":"Feature","id":99,"geometry":{"type":"Point","coordinates":[-0.11572184362801496,51.428927809521547]},"properties":{"OBJECTID":99,"EASTING":531089.65000000002,"NORTHING":171675.25,"UPRN":100023318258,"POLLINGDISTRICT":"SWE4","POLLINGPLACENAME":"Julian’s Primary School, 226 Leigham Court Road, London, SW16 2RB","LEGEND2":"SWE4, Julian’s Primary School, 226 Leigham Court Road, London, SW16 2RB"}},{"type":"Feature","id":100,"geometry":{"type":"Point","coordinates":[-0.11441120256531212,51.431988992593169]},"properties":{"OBJECTID":100,"EASTING":531172,"NORTHING":172018,"UPRN":200000470800,"POLLINGDISTRICT":"KNH1","POLLINGPLACENAME":"St Peter’s Church Crypt, Leigham Court, London, SW16 2SD","LEGEND2":"KNH1, St Peter’s Church Crypt, Leigham Court, London, SW16 2SD"}},{"type":"Feature","id":101,"geometry":{"type":"Point","coordinates":[-0.12395765462457986,51.479201384773909]},"properties":{"OBJECTID":101,"EASTING":530374,"NORTHING":177251,"UPRN":100023383422,"POLLINGDISTRICT":"OVL2","POLLINGPLACENAME":"Tate South Library, 180 South Lambeth Road, London, SW8 1QP","LEGEND2":"OVL2, Tate South Library, 180 South Lambeth Road, London, SW8 1QP"}}]}