{"type":"FeatureCollection","features":[{"type":"Feature","id":169,"geometry":{"type":"Point","coordinates":[-0.096880043066610425,51.490338697497918]},"properties":{"OBJECTID":169,"FULL_ID":"08/880133","SITE_TYPE":"TB","LOCATION":"0011000133 - WALWORTH ROAD - LARCOM STREET","SITE_TYPE_DESC":"CCTV Borough Camera (TB)","EASTING":532222,"NORTHING":178538}},{"type":"Feature","id":170,"geometry":{"type":"Point","coordinates":[-0.11076299047304898,51.502964163039309]},"properties":{"OBJECTID":170,"FULL_ID":"09/880156","SITE_TYPE":"TB","LOCATION":"WATERLOO ROAD - WATERLOO STATION","SITE_TYPE_DESC":"CCTV Borough Camera (TB)","EASTING":531222,"NORTHING":179917}},{"type":"Feature","id":171,"geometry":{"type":"Point","coordinates":[-0.11515407574651797,51.463224023630303]},"properties":{"OBJECTID":171,"FULL_ID":"09/880008","SITE_TYPE":"TB","LOCATION":"0011100008 - A23 BRIXTON ROAD / B223 ATLANTIC ROAD","SITE_TYPE_DESC":"CCTV Borough Camera (TB)","EASTING":531031,"NORTHING":175490}},{"type":"Feature","id":172,"geometry":{"type":"Point","coordinates":[-0.11288355233666447,51.463124538080834]},"properties":{"OBJECTID":172,"FULL_ID":"09/880009","SITE_TYPE":"TB","LOCATION":"0011100009 - BRIXTON STATION ROAD / POPES ROAD","SITE_TYPE_DESC":"CCTV Borough Camera (TB)","EASTING":531189,"NORTHING":175483}},{"type":"Feature","id":173,"geometry":{"type":"Point","coordinates":[-0.11446561736143292,51.463860431299182]},"properties":{"OBJECTID":173,"FULL_ID":"09/880010","SITE_TYPE":"TB","LOCATION":"0011100010 - A23 BRIXTON ROAD / OPP FERNDALE ROAD","SITE_TYPE_DESC":"CCTV Borough Camera (TB)","EASTING":531077,"NORTHING":175562}},{"type":"Feature","id":174,"geometry":{"type":"Point","coordinates":[-0.11432416720758504,51.464847363099302]},"properties":{"OBJECTID":174,"FULL_ID":"09/880011","SITE_TYPE":"TB","LOCATION":"0011100011 - A203 STOCKWELL ROAD / A23 BRIXTON ROAD","SITE_TYPE_DESC":"CCTV Borough Camera (TB)","EASTING":531084,"NORTHING":175672}},{"type":"Feature","id":175,"geometry":{"type":"Point","coordinates":[-0.10882138551043954,51.441934885898654]},"properties":{"OBJECTID":175,"FULL_ID":"09/607022","SITE_TYPE":"UX","LOCATION":"TULSE HILL BY KNOWLES CLOSE","SITE_TYPE_DESC":"Ultra Low Emission Zone Camera (UX)","EASTING":531532,"NORTHING":173134}},{"type":"Feature","id":176,"geometry":{"type":"Point","coordinates":[-0.1360701544243233,51.449484811948636]},"properties":{"OBJECTID":176,"FULL_ID":"09/607023","SITE_TYPE":"UX","LOCATION":"POYNDERS ROAD BY PLUMMER ROAD","SITE_TYPE_DESC":"Ultra Low Emission Zone Camera (UX)","EASTING":529617,"NORTHING":173925}},{"type":"Feature","id":177,"geometry":{"type":"Point","coordinates":[-0.13693653243596532,51.449768368180813]},"properties":{"OBJECTID":177,"FULL_ID":"09/607024","SITE_TYPE":"UX","LOCATION":"CLARENCE AVENUE BY POYNDERS ROAD","SITE_TYPE_DESC":"Ultra Low Emission Zone Camera (UX)","EASTING":529556,"NORTHING":173955}},{"type":"Feature","id":178,"geometry":{"type":"Point","coordinates":[-0.13804889446368895,51.450019854213167]},"properties":{"OBJECTID":178,"FULL_ID":"09/607025","SITE_TYPE":"UX","LOCATION":"RODENHURST ROAD BY POYNDERS ROAD","SITE_TYPE_DESC":"Ultra Low Emission Zone Camera (UX)","EASTING":529478,"NORTHING":173981}},{"type":"Feature","id":179,"geometry":{"type":"Point","coordinates":[-0.12628790148061067,51.484544313484427]},"properties":{"OBJECTID":179,"FULL_ID":"09/607030","SITE_TYPE":"UX","LOCATION":"A3205 NINE ELMS LANE WESTBOUND BY A3036 WANDSWORTH ROAD (ULEZ 577.1B)","SITE_TYPE_DESC":"Ultra Low Emission Zone Camera (UX)","EASTING":530197,"NORTHING":177841}},{"type":"Feature","id":180,"geometry":{"type":"Point","coordinates":[-0.13956706345577824,51.461536676697129]},"properties":{"OBJECTID":180,"FULL_ID":"09/608800","SITE_TYPE":"UX","LOCATION":"THE PAVEMENT BY B303 CLAPHAM COMMON (ULEZ 2006)","SITE_TYPE_DESC":"Ultra Low Emission Zone Camera (UX)","EASTING":529340,"NORTHING":175259}},{"type":"Feature","id":181,"geometry":{"type":"Point","coordinates":[-0.13154570319707173,51.427398424038664]},"properties":{"OBJECTID":181,"FULL_ID":"09/880081","SITE_TYPE":"TB","LOCATION":"0011100081 - A214 AMBLESIDE AVENUE / A23 STREATHAM HIGH ROAD","SITE_TYPE_DESC":"CCTV Borough Camera (TB)","EASTING":529994,"NORTHING":171477}},{"type":"Feature","id":182,"geometry":{"type":"Point","coordinates":[-0.12601109957953802,51.43750784069239]},"properties":{"OBJECTID":182,"FULL_ID":"09/880082","SITE_TYPE":"TB","LOCATION":"0011100082 - LEIGHAM COURT ROAD / EAST OF A23 STREATHAM HIGH ROAD","SITE_TYPE_DESC":"CCTV Borough Camera (TB)","EASTING":530350,"NORTHING":172611}},{"type":"Feature","id":183,"geometry":{"type":"Point","coordinates":[-0.11642798950228461,51.502560673047746]},"properties":{"OBJECTID":183,"FULL_ID":"09/607031","SITE_TYPE":"UX","LOCATION":"A3200 YORK ROAD NORTHEAST BOUND BY  CHICHELEY STREET (ULEZ 707A)","SITE_TYPE_DESC":"Ultra Low Emission Zone Camera (UX)","EASTING":530830,"NORTHING":179862}},{"type":"Feature","id":184,"geometry":{"type":"Point","coordinates":[-0.11613258560108954,51.502735783811907]},"properties":{"OBJECTID":184,"FULL_ID":"09/607032","SITE_TYPE":"UX","LOCATION":"A3200 YORK ROAD SOUTHWEST BOUND BY CHICHELEY STREET (ULEZ 707B)","SITE_TYPE_DESC":"Ultra Low Emission Zone Camera (UX)","EASTING":530850,"NORTHING":179882}},{"type":"Feature","id":185,"geometry":{"type":"Point","coordinates":[-0.1130966809547702,51.50507006404505]},"properties":{"OBJECTID":185,"FULL_ID":"09/607033","SITE_TYPE":"UX","LOCATION":"A3200 STAMFORD STREET BY WATERLOO BRIDGE (ULEZ 710)","SITE_TYPE_DESC":"Ultra Low Emission Zone Camera (UX)","EASTING":531054,"NORTHING":180147}},{"type":"Feature","id":186,"geometry":{"type":"Point","coordinates":[-0.10738102681718011,51.470508824099618]},"properties":{"OBJECTID":186,"FULL_ID":"09/607034","SITE_TYPE":"UX","LOCATION":"LILFORD ROAD BY LOUGHBOROUGH ROAD (ULEZ 886)","SITE_TYPE_DESC":"Ultra Low Emission Zone Camera (UX)","EASTING":531550,"NORTHING":176314}},{"type":"Feature","id":187,"geometry":{"type":"Point","coordinates":[-0.098633185095050063,51.468271935516711]},"properties":{"OBJECTID":187,"FULL_ID":"09/607035","SITE_TYPE":"UX","LOCATION":"A2217 COLDHARBOUR LANE BY NORTHLANDS STREET (ULEZ 888)","SITE_TYPE_DESC":"Ultra Low Emission Zone Camera (UX)","EASTING":532164,"NORTHING":176081}},{"type":"Feature","id":188,"geometry":{"type":"Point","coordinates":[-0.1142725440862432,51.464702647850757]},"properties":{"OBJECTID":188,"FULL_ID":"09/607036","SITE_TYPE":"UX","LOCATION":"A23 BRIXTON ROAD NORTHBOUND BY A203 STOCKWELL ROAD (ULEZ 906A)","SITE_TYPE_DESC":"Ultra Low Emission Zone Camera (UX)","EASTING":531088,"NORTHING":175656}},{"type":"Feature","id":189,"geometry":{"type":"Point","coordinates":[-0.11397738903456554,51.464877754722124]},"properties":{"OBJECTID":189,"FULL_ID":"09/607037","SITE_TYPE":"UX","LOCATION":"GRESHAM ROAD NORTHEAST BOUND BY A23 BRIXTON ROAD (ULEZ 906B)","SITE_TYPE_DESC":"Ultra Low Emission Zone Camera (UX)","EASTING":531108,"NORTHING":175676}},{"type":"Feature","id":190,"geometry":{"type":"Point","coordinates":[-0.10749147955044076,51.490114736034784]},"properties":{"OBJECTID":190,"FULL_ID":"08/602634","SITE_TYPE":"UX","LOCATION":"KENNINGTON LANE - NEWINGTON BUTTS (ULEZ 2634)","SITE_TYPE_DESC":"Ultra Low Emission Zone Camera (UX)","EASTING":531486,"NORTHING":178494}},{"type":"Feature","id":191,"geometry":{"type":"Point","coordinates":[-0.089138257250170203,51.441543603928821]},"properties":{"OBJECTID":191,"FULL_ID":"08/607002","SITE_TYPE":"UX","LOCATION":"GALLERY ROAD BY THURLOW PARK ROAD","SITE_TYPE_DESC":"Ultra Low Emission Zone Camera (UX)","EASTING":532901,"NORTHING":173126}},{"type":"Feature","id":192,"geometry":{"type":"Point","coordinates":[-0.12258429142594766,51.472659715047662]},"properties":{"OBJECTID":192,"FULL_ID":"09/880012","SITE_TYPE":"TB","LOCATION":"0011100012 - A3 CLAPHAM ROAD / BINFIELD ROAD (STOCKWELL TUBE)","SITE_TYPE_DESC":"CCTV Borough Camera (TB)","EASTING":530488,"NORTHING":176526}},{"type":"Feature","id":193,"geometry":{"type":"Point","coordinates":[-0.10759331669250853,51.462940318625712]},"properties":{"OBJECTID":193,"FULL_ID":"09/880015","SITE_TYPE":"TB","LOCATION":"0011100015 - A2217 COLDHARBOUR LANE / OPP GRESHAM ROAD","SITE_TYPE_DESC":"CCTV Borough Camera (TB)","EASTING":531557,"NORTHING":175472}},{"type":"Feature","id":194,"geometry":{"type":"Point","coordinates":[-0.10288889357037788,51.464599881191432]},"properties":{"OBJECTID":194,"FULL_ID":"09/880016","SITE_TYPE":"TB","LOCATION":"0011100016 - A2217 COLDHARBOUR LANE / SHAKESPEARE ROAD","SITE_TYPE_DESC":"CCTV Borough Camera (TB)","EASTING":531879,"NORTHING":175665}},{"type":"Feature","id":195,"geometry":{"type":"Point","coordinates":[-0.10317955658337241,51.465575811088662]},"properties":{"OBJECTID":195,"FULL_ID":"09/880017","SITE_TYPE":"TB","LOCATION":"0011100017 - A2217 COLDHARBOUR LANE / LOUGHBOROUGH ROAD (LOUGHBOROUGH JUNCTION)","SITE_TYPE_DESC":"CCTV Borough Camera (TB)","EASTING":531856,"NORTHING":175773}},{"type":"Feature","id":196,"geometry":{"type":"Point","coordinates":[-0.10163978245299543,51.466252323552297]},"properties":{"OBJECTID":196,"FULL_ID":"09/880018","SITE_TYPE":"TB","LOCATION":"0011100018 - A2217 COLDHARBOUR LANE / OPP HERNE HILL ROAD (LOUGHBOROUGH JUNCTION)","SITE_TYPE_DESC":"CCTV Borough Camera (TB)","EASTING":531961,"NORTHING":175851}},{"type":"Feature","id":197,"geometry":{"type":"Point","coordinates":[-0.1200331512128886,51.47447133505981]},"properties":{"OBJECTID":197,"FULL_ID":"09/880019","SITE_TYPE":"TB","LOCATION":"0011100019 - A3 CLAPHAM ROAD / STOCKWELL PARK ROAD","SITE_TYPE_DESC":"CCTV Borough Camera (TB)","EASTING":530660,"NORTHING":176732}},{"type":"Feature","id":198,"geometry":{"type":"Point","coordinates":[-0.12550336991261324,51.473812514640272]},"properties":{"OBJECTID":198,"FULL_ID":"09/880020","SITE_TYPE":"TB","LOCATION":"0011100020 - SANDHAM COURT - BINFIELD ROAD","SITE_TYPE_DESC":"CCTV Borough Camera (TB)","EASTING":530282,"NORTHING":176649}},{"type":"Feature","id":199,"geometry":{"type":"Point","coordinates":[-0.11367516867562086,51.486878061526546]},"properties":{"OBJECTID":199,"FULL_ID":"09/608801","SITE_TYPE":"UX","LOCATION":"KENNINGTON LANE BY MONTFORD PLACE (ULEZ 2614)","SITE_TYPE_DESC":"Ultra Low Emission Zone Camera (UX)","EASTING":531066,"NORTHING":178123}},{"type":"Feature","id":200,"geometry":{"type":"Point","coordinates":[-0.09654398416084696,51.456889055729114]},"properties":{"OBJECTID":200,"FULL_ID":"09/608802","SITE_TYPE":"UX","LOCATION":"HERNE HILL CAMERA A BY FRANKFURT ROAD (ULEZ 2066A)","SITE_TYPE_DESC":"Ultra Low Emission Zone Camera (UX)","EASTING":532342,"NORTHING":174819}},{"type":"Feature","id":201,"geometry":{"type":"Point","coordinates":[-0.09624881358134782,51.457064117921249]},"properties":{"OBJECTID":201,"FULL_ID":"09/608803","SITE_TYPE":"UX","LOCATION":"HERNE HILL CAMERA B BY FRANKFURT ROAD (ULEZ 2066B)","SITE_TYPE_DESC":"Ultra Low Emission Zone Camera (UX)","EASTING":532362,"NORTHING":174839}},{"type":"Feature","id":202,"geometry":{"type":"Point","coordinates":[-0.10312275188988397,51.465556906137508]},"properties":{"OBJECTID":202,"FULL_ID":"09/608842","SITE_TYPE":"UX","LOCATION":"LOUGHBOROUGH ROAD CAMERA A BY A2217 COLDHARBOUR LANE (ULEZ 856A)","SITE_TYPE_DESC":"Ultra Low Emission Zone Camera (UX)","EASTING":531860,"NORTHING":175771}},{"type":"Feature","id":203,"geometry":{"type":"Point","coordinates":[-0.10282754838786896,51.465731984893651]},"properties":{"OBJECTID":203,"FULL_ID":"09/608843","SITE_TYPE":"UX","LOCATION":"LOUGHBOROUGH ROAD CAMERA B BY A2217 COLDHARBOUR LANE (ULEZ 856B)","SITE_TYPE_DESC":"Ultra Low Emission Zone Camera (UX)","EASTING":531880,"NORTHING":175791}},{"type":"Feature","id":204,"geometry":{"type":"Point","coordinates":[-0.10282754838786896,51.465731984893651]},"properties":{"OBJECTID":204,"FULL_ID":"09/608844","SITE_TYPE":"UX","LOCATION":"LOUGHBOROUGH ROAD CAMERA C BY A2217 COLDHARBOUR LANE (ULEZ 856C)","SITE_TYPE_DESC":"Ultra Low Emission Zone Camera (UX)","EASTING":531880,"NORTHING":175791}},{"type":"Feature","id":205,"geometry":{"type":"Point","coordinates":[-0.11168352983933763,51.44475983525583]},"properties":{"OBJECTID":205,"FULL_ID":"09/608845","SITE_TYPE":"UX","LOCATION":"A204 TULSE HILL CAMERA A BY UPPER TULSE HILL  (ULEZ 874,1A)","SITE_TYPE_DESC":"Ultra Low Emission Zone Camera (UX)","EASTING":531325,"NORTHING":173443}},{"type":"Feature","id":206,"geometry":{"type":"Point","coordinates":[-0.11138849541977941,51.44493493742511]},"properties":{"OBJECTID":206,"FULL_ID":"09/608846","SITE_TYPE":"UX","LOCATION":"A204 TULSE HILL CAMERA B BY UPPER TULSE HILL  (ULEZ 874,1B)","SITE_TYPE_DESC":"Ultra Low Emission Zone Camera (UX)","EASTING":531345,"NORTHING":173463}},{"type":"Feature","id":207,"geometry":{"type":"Point","coordinates":[-0.10698581602237893,51.477624696433757]},"properties":{"OBJECTID":207,"FULL_ID":"09/608847","SITE_TYPE":"UX","LOCATION":"FOXLEY ROAD BY VASSALL ROAD (ULEZ 833)","SITE_TYPE_DESC":"Ultra Low Emission Zone Camera (UX)","EASTING":531557,"NORTHING":177106}},{"type":"Feature","id":208,"geometry":{"type":"Point","coordinates":[-0.1195418431403327,51.46890597491813]},"properties":{"OBJECTID":208,"FULL_ID":"09/608848","SITE_TYPE":"UX","LOCATION":"STOCKWELL ROAD BY SIDNEY ROAD (ULEZ 762)","SITE_TYPE_DESC":"Ultra Low Emission Zone Camera (UX)","EASTING":530710,"NORTHING":176114}},{"type":"Feature","id":209,"geometry":{"type":"Point","coordinates":[-0.11794092017723963,51.460570971642994]},"properties":{"OBJECTID":209,"FULL_ID":"09/608849","SITE_TYPE":"UX","LOCATION":"A2217 ACRE LANE CAMERA A BY PORDEN ROAD (ULEZ 763A)","SITE_TYPE_DESC":"Ultra Low Emission Zone Camera (UX)","EASTING":530845,"NORTHING":175190}},{"type":"Feature","id":210,"geometry":{"type":"Point","coordinates":[-0.11764580676655799,51.460746087875755]},"properties":{"OBJECTID":210,"FULL_ID":"09/608850","SITE_TYPE":"UX","LOCATION":"A2217 ACRE LANE CAMERA B BY PORDEN ROAD (ULEZ 763B)","SITE_TYPE_DESC":"Ultra Low Emission Zone Camera (UX)","EASTING":530865,"NORTHING":175210}},{"type":"Feature","id":211,"geometry":{"type":"Point","coordinates":[-0.11187048812087569,51.479304147141306]},"properties":{"OBJECTID":211,"FULL_ID":"09/608851","SITE_TYPE":"UX","LOCATION":"BRIXTON ROAD CAMERA A BY CRANMER ROAD (ULEZ 794A)","SITE_TYPE_DESC":"Ultra Low Emission Zone Camera (UX)","EASTING":531213,"NORTHING":177284}},{"type":"Feature","id":212,"geometry":{"type":"Point","coordinates":[-0.12424082007785552,51.470186259817716]},"properties":{"OBJECTID":212,"FULL_ID":"09/880021","SITE_TYPE":"TB","LOCATION":"0011100021 - CLAPHAM ROAD / GRANTHAM ROAD","SITE_TYPE_DESC":"CCTV Borough Camera (TB)","EASTING":530380,"NORTHING":176248}},{"type":"Feature","id":213,"geometry":{"type":"Point","coordinates":[-0.1194857763132669,51.468518389892459]},"properties":{"OBJECTID":213,"FULL_ID":"09/880022","SITE_TYPE":"TB","LOCATION":"0011100022 - A203 STOCKWELL ROAD / STOCKWELL GREEN","SITE_TYPE_DESC":"CCTV Borough Camera (TB)","EASTING":530715,"NORTHING":176071}},{"type":"Feature","id":214,"geometry":{"type":"Point","coordinates":[-0.11307880083720341,51.462579120781591]},"properties":{"OBJECTID":214,"FULL_ID":"09/880023","SITE_TYPE":"TB","LOCATION":"0011100023 - B223 ATLANTIC ROAD / ELECTRIC AVENUE","SITE_TYPE_DESC":"CCTV Borough Camera (TB)","EASTING":531177,"NORTHING":175422}},{"type":"Feature","id":215,"geometry":{"type":"Point","coordinates":[-0.11379584774103772,51.462995338748939]},"properties":{"OBJECTID":215,"FULL_ID":"09/880024","SITE_TYPE":"TB","LOCATION":"0011100024 - B223 ATLANTIC ROAD / OPP ELECTRIC LANE","SITE_TYPE_DESC":"CCTV Borough Camera (TB)","EASTING":531126,"NORTHING":175467}},{"type":"Feature","id":216,"geometry":{"type":"Point","coordinates":[-0.11410364326445147,51.462163961596914]},"properties":{"OBJECTID":216,"FULL_ID":"09/880025","SITE_TYPE":"TB","LOCATION":"0011100025 - ELECTRIC AVENUE / ELECTRIC LANE","SITE_TYPE_DESC":"CCTV Borough Camera (TB)","EASTING":531107,"NORTHING":175374}},{"type":"Feature","id":217,"geometry":{"type":"Point","coordinates":[-0.1152842739043142,51.460762091499873]},"properties":{"OBJECTID":217,"FULL_ID":"09/880026","SITE_TYPE":"TB","LOCATION":"0011100026 - A23 EFFRA ROAD / RUSHCROFT ROAD","SITE_TYPE_DESC":"CCTV Borough Camera (TB)","EASTING":531029,"NORTHING":175216}},{"type":"Feature","id":218,"geometry":{"type":"Point","coordinates":[-0.11075596431029314,51.462352851830161]},"properties":{"OBJECTID":218,"FULL_ID":"09/880028","SITE_TYPE":"TB","LOCATION":"0011100028 - COLDHARBOUR LANE / SOMERLEYTON ROAD","SITE_TYPE_DESC":"CCTV Borough Camera (TB)","EASTING":531339,"NORTHING":175401}},{"type":"Feature","id":219,"geometry":{"type":"Point","coordinates":[-0.11265195124808039,51.462806060732007]},"properties":{"OBJECTID":219,"FULL_ID":"09/880029","SITE_TYPE":"TB","LOCATION":"0011100029 - POPES ROAD / NORTH OF ATLANTIC ROAD","SITE_TYPE_DESC":"CCTV Borough Camera (TB)","EASTING":531206,"NORTHING":175448}},{"type":"Feature","id":220,"geometry":{"type":"Point","coordinates":[-0.11412476316451474,51.455015013266809]},"properties":{"OBJECTID":220,"FULL_ID":"09/880035","SITE_TYPE":"TB","LOCATION":"0011100035 - A204 TULSE HILL / BRIXTON WATER LANE","SITE_TYPE_DESC":"CCTV Borough Camera (TB)","EASTING":531126,"NORTHING":174579}},{"type":"Feature","id":221,"geometry":{"type":"Point","coordinates":[-0.11841969030764821,51.45592937611034]},"properties":{"OBJECTID":221,"FULL_ID":"09/880036","SITE_TYPE":"TB","LOCATION":"0011100036 - A23 BRIXTON HILL / HORSFORD ROAD","SITE_TYPE_DESC":"CCTV Borough Camera (TB)","EASTING":530825,"NORTHING":174673}},{"type":"Feature","id":222,"geometry":{"type":"Point","coordinates":[-0.12304911234697399,51.449043168839999]},"properties":{"OBJECTID":222,"FULL_ID":"09/880037","SITE_TYPE":"TB","LOCATION":"0011100037 - A23 BRIXTON HILL / OPP NEW PARK ROAD","SITE_TYPE_DESC":"CCTV Borough Camera (TB)","EASTING":530523,"NORTHING":173899}},{"type":"Feature","id":223,"geometry":{"type":"Point","coordinates":[-0.11595689393817325,51.459459958139909]},"properties":{"OBJECTID":223,"FULL_ID":"09/880038","SITE_TYPE":"TB","LOCATION":"0011100038 - A23 ST MATTHEW'S ROAD / OPP ST MATTHEW'S ROAD","SITE_TYPE_DESC":"CCTV Borough Camera (TB)","EASTING":530986,"NORTHING":175070}},{"type":"Feature","id":224,"geometry":{"type":"Point","coordinates":[-0.118210774601156,51.457859479013443]},"properties":{"OBJECTID":224,"FULL_ID":"09/880039","SITE_TYPE":"TB","LOCATION":"0011100039 - A23 BRIXTON HILL / SUDBOURNE ROAD","SITE_TYPE_DESC":"CCTV Borough Camera (TB)","EASTING":530834,"NORTHING":174888}},{"type":"Feature","id":225,"geometry":{"type":"Point","coordinates":[-0.092018207069560917,51.472220200142587]},"properties":{"OBJECTID":225,"FULL_ID":"08/880084","SITE_TYPE":"TB","LOCATION":"0011000084 - DANEVILLE ROAD - ORPHEUS STREET","SITE_TYPE_DESC":"CCTV Borough Camera (TB)","EASTING":532612,"NORTHING":176532}},{"type":"Feature","id":226,"geometry":{"type":"Point","coordinates":[-0.13463919356352144,51.463059078710529]},"properties":{"OBJECTID":226,"FULL_ID":"09/602154","SITE_TYPE":"UX","LOCATION":"CLAPHAM HIGH STREET - VOLTAIRE ROAD (ULEZ 2154)","SITE_TYPE_DESC":"Ultra Low Emission Zone Camera (UX)","EASTING":529678,"NORTHING":175437}},{"type":"Feature","id":227,"geometry":{"type":"Point","coordinates":[-0.13448459812408492,51.462966691860146]},"properties":{"OBJECTID":227,"FULL_ID":"09/602155","SITE_TYPE":"UX","LOCATION":"CLAPHAM HIGH STREET - VOLTAIRE ROAD (ULEZ 2155)","SITE_TYPE_DESC":"Ultra Low Emission Zone Camera (UX)","EASTING":529689,"NORTHING":175427}},{"type":"Feature","id":228,"geometry":{"type":"Point","coordinates":[-0.11436257164180412,51.464614168299661]},"properties":{"OBJECTID":228,"FULL_ID":"09/602164","SITE_TYPE":"UX","LOCATION":"A24 BRIXTON ROAD - A203 STOCKWELL ROAD - GRESHAM ROAD - CANTERBURY CRESCENT (ULEZ 906D)","SITE_TYPE_DESC":"Ultra Low Emission Zone Camera (UX)","EASTING":531082,"NORTHING":175646}},{"type":"Feature","id":229,"geometry":{"type":"Point","coordinates":[-0.11424969580123899,51.464558395531775]},"properties":{"OBJECTID":229,"FULL_ID":"09/602174","SITE_TYPE":"UX","LOCATION":"A24 BRIXTON ROAD - A203 STOCKWELL ROAD - GRESHAM ROAD - CANTERBURY CRESCENT (ULEZ 906C)","SITE_TYPE_DESC":"Ultra Low Emission Zone Camera (UX)","EASTING":531090,"NORTHING":175640}},{"type":"Feature","id":230,"geometry":{"type":"Point","coordinates":[-0.11157522852148183,51.479479246371248]},"properties":{"OBJECTID":230,"FULL_ID":"09/608852","SITE_TYPE":"UX","LOCATION":"BRIXTON ROAD CAMERA B BY CRANMER ROAD (ULEZ 794B)","SITE_TYPE_DESC":"Ultra Low Emission Zone Camera (UX)","EASTING":531233,"NORTHING":177304}},{"type":"Feature","id":231,"geometry":{"type":"Point","coordinates":[-0.11102994571702481,51.495117788813836]},"properties":{"OBJECTID":231,"FULL_ID":"09/608853","SITE_TYPE":"UX","LOCATION":"KENNINGTON ROAD BY BROOK DRIVE (ULEZ 851)","SITE_TYPE_DESC":"Ultra Low Emission Zone Camera (UX)","EASTING":531226,"NORTHING":179044}},{"type":"Feature","id":232,"geometry":{"type":"Point","coordinates":[-0.11146225423656506,51.444891161954786]},"properties":{"OBJECTID":232,"FULL_ID":"09/608856","SITE_TYPE":"UX","LOCATION":"TULSE HILL BY UPPER TULSE HILL BY TRINITY RISE","SITE_TYPE_DESC":"Ultra Low Emission Zone Camera (UX)","EASTING":531340,"NORTHING":173458}},{"type":"Feature","id":233,"geometry":{"type":"Point","coordinates":[-0.097104002085565536,51.475612230320039]},"properties":{"OBJECTID":233,"FULL_ID":"08/602214","SITE_TYPE":"UX","LOCATION":"CAMBERWELL NEW ROAD BY MEDLAR STREET  NWBOUND (ULEZ 4821)","SITE_TYPE_DESC":"Ultra Low Emission Zone Camera (UX)","EASTING":532249,"NORTHING":176900}},{"type":"Feature","id":234,"geometry":{"type":"Point","coordinates":[-0.092911852772007558,51.472198772399523]},"properties":{"OBJECTID":234,"FULL_ID":"08/880085","SITE_TYPE":"TB","LOCATION":"0011000085 - DENMARK HILL - COLDHARBOUR LANE","SITE_TYPE_DESC":"CCTV Borough Camera (TB)","EASTING":532550,"NORTHING":176528}},{"type":"Feature","id":235,"geometry":{"type":"Point","coordinates":[-0.093303671615989001,51.472816658582552]},"properties":{"OBJECTID":235,"FULL_ID":"08/880087","SITE_TYPE":"TB","LOCATION":"0011000087 - DENMARK HILL - ORPHEUS STREET","SITE_TYPE_DESC":"CCTV Borough Camera (TB)","EASTING":532521,"NORTHING":176596}},{"type":"Feature","id":236,"geometry":{"type":"Point","coordinates":[-0.092991147541204106,51.473405100379594]},"properties":{"OBJECTID":236,"FULL_ID":"08/880088","SITE_TYPE":"TB","LOCATION":"0011000088 - DENMARK HILL - BUTTERFLY WALK","SITE_TYPE_DESC":"CCTV Borough Camera (TB)","EASTING":532541,"NORTHING":176662}},{"type":"Feature","id":237,"geometry":{"type":"Point","coordinates":[-0.092808725816488719,51.473635945603]},"properties":{"OBJECTID":237,"FULL_ID":"08/880089","SITE_TYPE":"TB","LOCATION":"0011000089 - DENMARK HILL - MCDONALDS","SITE_TYPE_DESC":"CCTV Borough Camera (TB)","EASTING":532553,"NORTHING":176688}},{"type":"Feature","id":238,"geometry":{"type":"Point","coordinates":[-0.093035966801722922,51.473711585393062]},"properties":{"OBJECTID":238,"FULL_ID":"08/880090","SITE_TYPE":"TB","LOCATION":"0011000090 - DENMARK HILL - TRAFFIC ISLAND","SITE_TYPE_DESC":"CCTV Borough Camera (TB)","EASTING":532537,"NORTHING":176696}},{"type":"Feature","id":239,"geometry":{"type":"Point","coordinates":[-0.092697877365500475,51.473876948035816]},"properties":{"OBJECTID":239,"FULL_ID":"08/880091","SITE_TYPE":"TB","LOCATION":"0011000091 - DENMARK HILL - CAMBERWELL CHURCH STREET","SITE_TYPE_DESC":"CCTV Borough Camera (TB)","EASTING":532560,"NORTHING":176715}},{"type":"Feature","id":240,"geometry":{"type":"Point","coordinates":[-0.090367451774177529,51.473821018502825]},"properties":{"OBJECTID":240,"FULL_ID":"08/880095","SITE_TYPE":"TB","LOCATION":"0011000095 - CAMBERWELL CHURCH STREET - GROVE LANE","SITE_TYPE_DESC":"CCTV Borough Camera (TB)","EASTING":532722,"NORTHING":176713}},{"type":"Feature","id":241,"geometry":{"type":"Point","coordinates":[-0.088892798257559219,51.47361712773818]},"properties":{"OBJECTID":241,"FULL_ID":"08/880096","SITE_TYPE":"TB","LOCATION":"0011000096 - CAMBERWELL CHURCH STREET - CAMBERWELL GROVE","SITE_TYPE_DESC":"CCTV Borough Camera (TB)","EASTING":532825,"NORTHING":176693}},{"type":"Feature","id":242,"geometry":{"type":"Point","coordinates":[-0.090033599290389801,51.473195073997076]},"properties":{"OBJECTID":242,"FULL_ID":"08/880097","SITE_TYPE":"TB","LOCATION":"0011000097 - GROVE LANE - DANVILLE ROAD","SITE_TYPE_DESC":"CCTV Borough Camera (TB)","EASTING":532747,"NORTHING":176644}},{"type":"Feature","id":243,"geometry":{"type":"Point","coordinates":[-0.12964991813388305,51.465371647960858]},"properties":{"OBJECTID":243,"FULL_ID":"09/880149","SITE_TYPE":"TB","LOCATION":"CLAPHAM PARK ROAD  - BEDFORD ROAD","SITE_TYPE_DESC":"CCTV Borough Camera (TB)","EASTING":530018,"NORTHING":175703}},{"type":"Feature","id":244,"geometry":{"type":"Point","coordinates":[-0.12792182743550493,51.459750590215229]},"properties":{"OBJECTID":244,"FULL_ID":"09/880150","SITE_TYPE":"TB","LOCATION":"ACRE LANE - HETHERINGTON ROAD","SITE_TYPE_DESC":"CCTV Borough Camera (TB)","EASTING":530154,"NORTHING":175081}},{"type":"Feature","id":245,"geometry":{"type":"Point","coordinates":[-0.11591758598937686,51.461114000575222]},"properties":{"OBJECTID":245,"FULL_ID":"09/880151","SITE_TYPE":"TB","LOCATION":"ACRE LANE - BRIXTON ROAD","SITE_TYPE_DESC":"CCTV Borough Camera (TB)","EASTING":530984,"NORTHING":175254}},{"type":"Feature","id":246,"geometry":{"type":"Point","coordinates":[-0.14428112414340846,51.468122071536158]},"properties":{"OBJECTID":246,"FULL_ID":"09/880152","SITE_TYPE":"TB","LOCATION":"WANDSWORTH ROAD - SILVERTHORNE ROAD","SITE_TYPE_DESC":"CCTV Borough Camera (TB)","EASTING":528994,"NORTHING":175983}},{"type":"Feature","id":247,"geometry":{"type":"Point","coordinates":[-0.14312472129967188,51.468589368684654]},"properties":{"OBJECTID":247,"FULL_ID":"09/880153","SITE_TYPE":"TB","LOCATION":"WANDSWORTH ROAD - ROZEL ROAD","SITE_TYPE_DESC":"CCTV Borough Camera (TB)","EASTING":529073,"NORTHING":176037}},{"type":"Feature","id":248,"geometry":{"type":"Point","coordinates":[-0.11524908608588866,51.459169800371171]},"properties":{"OBJECTID":248,"FULL_ID":"09/880154","SITE_TYPE":"TB","LOCATION":"EFFRA ROAD - ST MATTHEWS ROAD","SITE_TYPE_DESC":"CCTV Borough Camera (TB)","EASTING":531036,"NORTHING":175039}},{"type":"Feature","id":249,"geometry":{"type":"Point","coordinates":[-0.10462558578258591,51.436228568917031]},"properties":{"OBJECTID":249,"FULL_ID":"09/880155","SITE_TYPE":"TB","LOCATION":"0015600008 - A215 NORWOOD ROAD SOUTH OF YORK HILL","SITE_TYPE_DESC":"CCTV Borough Camera (TB)","EASTING":531840,"NORTHING":172507}},{"type":"Feature","id":250,"geometry":{"type":"Point","coordinates":[-0.15339431063628894,51.465999791449043]},"properties":{"OBJECTID":250,"FULL_ID":"10/608443","SITE_TYPE":"UX","LOCATION":"A3036 LAVENDER HILL BY ASHLEY CRESCENT (ULEZ 1051)","SITE_TYPE_DESC":"Ultra Low Emission Zone Camera (UX)","EASTING":528367,"NORTHING":175731}},{"type":"Feature","id":251,"geometry":{"type":"Point","coordinates":[-0.14887751593426463,51.471953652020439]},"properties":{"OBJECTID":251,"FULL_ID":"10/608444","SITE_TYPE":"UX","LOCATION":"QUEENSTOWN ROAD BY BROUGHTON STREET","SITE_TYPE_DESC":"Ultra Low Emission Zone Camera (UX)","EASTING":528664,"NORTHING":176401}},{"type":"Feature","id":252,"geometry":{"type":"Point","coordinates":[-0.14864618445873526,51.471976977932172]},"properties":{"OBJECTID":252,"FULL_ID":"10/608445","SITE_TYPE":"UX","LOCATION":"QUEENSTOWN ROAD BY BROUGHTON STREET","SITE_TYPE_DESC":"Ultra Low Emission Zone Camera (UX)","EASTING":528680,"NORTHING":176404}},{"type":"Feature","id":253,"geometry":{"type":"Point","coordinates":[-0.15337557192718909,51.466107408135969]},"properties":{"OBJECTID":253,"FULL_ID":"10/608446","SITE_TYPE":"UX","LOCATION":"LAVENDER HILL BY WOODMERE CLOSE","SITE_TYPE_DESC":"Ultra Low Emission Zone Camera (UX)","EASTING":528368,"NORTHING":175743}},{"type":"Feature","id":254,"geometry":{"type":"Point","coordinates":[-0.15048862560939352,51.444200616314539]},"properties":{"OBJECTID":254,"FULL_ID":"10/880705","SITE_TYPE":"TB","LOCATION":"HILDRETH STREET / BEDFORD HILL","SITE_TYPE_DESC":"CCTV Borough Camera (TB)","EASTING":528630,"NORTHING":173312}},{"type":"Feature","id":255,"geometry":{"type":"Point","coordinates":[-0.15206514728061088,51.44329022616521]},"properties":{"OBJECTID":255,"FULL_ID":"10/880703","SITE_TYPE":"TB","LOCATION":"BALHAM HIGH ROAD / BARCLAYS BANK","SITE_TYPE_DESC":"CCTV Borough Camera (TB)","EASTING":528523,"NORTHING":173208}},{"type":"Feature","id":256,"geometry":{"type":"Point","coordinates":[-0.10592361497715,51.437544532761834]},"properties":{"OBJECTID":256,"FULL_ID":"09/880114","SITE_TYPE":"TB","LOCATION":"0011100114 - A215 NORWOOD ROAD / HARPENDEN ROAD","SITE_TYPE_DESC":"CCTV Borough Camera (TB)","EASTING":531746,"NORTHING":172651}},{"type":"Feature","id":257,"geometry":{"type":"Point","coordinates":[-0.10521720064714224,51.436534903027869]},"properties":{"OBJECTID":257,"FULL_ID":"09/880115","SITE_TYPE":"TB","LOCATION":"0011100115 - A215 NORWOOD ROAD / YORK HILL","SITE_TYPE_DESC":"CCTV Borough Camera (TB)","EASTING":531798,"NORTHING":172540}},{"type":"Feature","id":258,"geometry":{"type":"Point","coordinates":[-0.10402365055288179,51.432001185701679]},"properties":{"OBJECTID":258,"FULL_ID":"09/880116","SITE_TYPE":"TB","LOCATION":"0011100116 - A215 KNIGHTS HILL / HANNEN ROAD / WEST NORWOOD TRAIN STATION","SITE_TYPE_DESC":"CCTV Borough Camera (TB)","EASTING":531894,"NORTHING":172038}},{"type":"Feature","id":259,"geometry":{"type":"Point","coordinates":[-0.10362262978850452,51.434737508351816]},"properties":{"OBJECTID":259,"FULL_ID":"09/880117","SITE_TYPE":"TB","LOCATION":"0011100117 - A215 NORWOOD ROAD / OPP WAYLETT PLACE","SITE_TYPE_DESC":"CCTV Borough Camera (TB)","EASTING":531914,"NORTHING":172343}},{"type":"Feature","id":260,"geometry":{"type":"Point","coordinates":[-0.10408571564399646,51.433629889375091]},"properties":{"OBJECTID":260,"FULL_ID":"09/880118","SITE_TYPE":"TB","LOCATION":"0011100118 - A215 NORWOOD ROAD / OPP ROBSON ROAD","SITE_TYPE_DESC":"CCTV Borough Camera (TB)","EASTING":531885,"NORTHING":172219}},{"type":"Feature","id":261,"geometry":{"type":"Point","coordinates":[-0.10428714107633344,51.432239263150819]},"properties":{"OBJECTID":261,"FULL_ID":"09/880119","SITE_TYPE":"TB","LOCATION":"0011100119 - A215 KNIGHTS HILL / NETTLEFOLD PLACE","SITE_TYPE_DESC":"CCTV Borough Camera (TB)","EASTING":531875,"NORTHING":172064}},{"type":"Feature","id":262,"geometry":{"type":"Point","coordinates":[-0.10394854911410313,51.431730185711366]},"properties":{"OBJECTID":262,"FULL_ID":"09/880120","SITE_TYPE":"TB","LOCATION":"0011100120 - A215 KNIGHTS HILL / NORTH OF COTSWOLD STREET / WEST NORWOOD STATION","SITE_TYPE_DESC":"CCTV Borough Camera (TB)","EASTING":531900,"NORTHING":172008}},{"type":"Feature","id":263,"geometry":{"type":"Point","coordinates":[-0.10461632873141717,51.431237394829282]},"properties":{"OBJECTID":263,"FULL_ID":"09/880121","SITE_TYPE":"TB","LOCATION":"0011100121 - A215 KNIGHTS HILL / WOLFINGTON ROAD","SITE_TYPE_DESC":"CCTV Borough Camera (TB)","EASTING":531855,"NORTHING":171952}},{"type":"Feature","id":264,"geometry":{"type":"Point","coordinates":[-0.10430799212138658,51.429649669925602]},"properties":{"OBJECTID":264,"FULL_ID":"09/880122","SITE_TYPE":"TB","LOCATION":"0011100122 - A215 KNIGHTS HILL / A215 ERNEST AVENUE","SITE_TYPE_DESC":"CCTV Borough Camera (TB)","EASTING":531881,"NORTHING":171776}},{"type":"Feature","id":265,"geometry":{"type":"Point","coordinates":[-0.1513248801174005,51.445229991586018]},"properties":{"OBJECTID":265,"FULL_ID":"10/880706","SITE_TYPE":"TB","LOCATION":"BALHAM HIGH ROAD / BEDFORD HILL","SITE_TYPE_DESC":"CCTV Borough Camera (TB)","EASTING":528569,"NORTHING":173425}},{"type":"Feature","id":266,"geometry":{"type":"Point","coordinates":[-0.14995164594641308,51.442888189528489]},"properties":{"OBJECTID":266,"FULL_ID":"10/880707","SITE_TYPE":"TB","LOCATION":"BALHAM STATION ROAD / BEDFORD HILL","SITE_TYPE_DESC":"CCTV Borough Camera (TB)","EASTING":528671,"NORTHING":173167}},{"type":"Feature","id":267,"geometry":{"type":"Point","coordinates":[-0.10472341389382271,51.428649196875824]},"properties":{"OBJECTID":267,"FULL_ID":"09/880123","SITE_TYPE":"TB","LOCATION":"0011100123 - A215 KNIGHTS HILL / CHEVIOT ROAD","SITE_TYPE_DESC":"CCTV Borough Camera (TB)","EASTING":531855,"NORTHING":171664}},{"type":"Feature","id":268,"geometry":{"type":"Point","coordinates":[-0.10060522970631179,51.428744363284189]},"properties":{"OBJECTID":268,"FULL_ID":"09/880124","SITE_TYPE":"TB","LOCATION":"0011100124 - B232 NORWOOD HIGH STREET / OPP ROTHSCHILD STREET","SITE_TYPE_DESC":"CCTV Borough Camera (TB)","EASTING":532141,"NORTHING":171682}},{"type":"Feature","id":269,"geometry":{"type":"Point","coordinates":[-0.10129876382140034,51.430059565867531]},"properties":{"OBJECTID":269,"FULL_ID":"09/880125","SITE_TYPE":"TB","LOCATION":"0011100125 - A215 NORWOOD HIGH STREET / A215 ERNEST AVENUE","SITE_TYPE_DESC":"CCTV Borough Camera (TB)","EASTING":532089,"NORTHING":171827}},{"type":"Feature","id":270,"geometry":{"type":"Point","coordinates":[-0.12875228549613191,51.433100223675481]},"properties":{"OBJECTID":270,"FULL_ID":"09/880090","SITE_TYPE":"TB","LOCATION":"0011100090 - A23 STREATHAM HIGH ROAD / OPP GRACEFIELD GARDENS","SITE_TYPE_DESC":"CCTV Borough Camera (TB)","EASTING":530172,"NORTHING":172116}},{"type":"Feature","id":271,"geometry":{"type":"Point","coordinates":[-0.1284902449034325,51.433527690880055]},"properties":{"OBJECTID":271,"FULL_ID":"09/880091","SITE_TYPE":"TB","LOCATION":"0011100091 - A23 STREATHAM HIGH ROAD / WOODBOURNE AVENUE","SITE_TYPE_DESC":"CCTV Borough Camera (TB)","EASTING":530189,"NORTHING":172164}},{"type":"Feature","id":272,"geometry":{"type":"Point","coordinates":[-0.12842298890236567,51.434821577926165]},"properties":{"OBJECTID":272,"FULL_ID":"09/880092","SITE_TYPE":"TB","LOCATION":"0011100092 - A23 STREATHAM HIGH ROAD / NORFOLK HOUSE ROAD","SITE_TYPE_DESC":"CCTV Borough Camera (TB)","EASTING":530190,"NORTHING":172308}},{"type":"Feature","id":273,"geometry":{"type":"Point","coordinates":[-0.12755761750590366,51.436633287763421]},"properties":{"OBJECTID":273,"FULL_ID":"09/880094","SITE_TYPE":"TB","LOCATION":"0011100094 - A23 STREATHAM HIGH ROAD / OPP BROADLANDS AVENUE","SITE_TYPE_DESC":"CCTV Borough Camera (TB)","EASTING":530245,"NORTHING":172511}},{"type":"Feature","id":274,"geometry":{"type":"Point","coordinates":[-0.12748738772024285,51.437999069753921]},"properties":{"OBJECTID":274,"FULL_ID":"09/880095","SITE_TYPE":"TB","LOCATION":"0011100095 - A23 STREATHAM HIGH ROAD / DREWSTEAD ROAD","SITE_TYPE_DESC":"CCTV Borough Camera (TB)","EASTING":530246,"NORTHING":172663}},{"type":"Feature","id":275,"geometry":{"type":"Point","coordinates":[-0.12704944790615311,51.43850465878085]},"properties":{"OBJECTID":275,"FULL_ID":"09/880096","SITE_TYPE":"TB","LOCATION":"0011100096 - A23 STREATHAM HILL / B221 STERNHOLD AVENUE","SITE_TYPE_DESC":"CCTV Borough Camera (TB)","EASTING":530275,"NORTHING":172720}},{"type":"Feature","id":276,"geometry":{"type":"Point","coordinates":[-0.12600720128169401,51.439009574833648]},"properties":{"OBJECTID":276,"FULL_ID":"09/880097","SITE_TYPE":"TB","LOCATION":"0011100097 - A23 STREATHAM HILL / BARCOMBE AVENUE","SITE_TYPE_DESC":"CCTV Borough Camera (TB)","EASTING":530346,"NORTHING":172778}},{"type":"Feature","id":277,"geometry":{"type":"Point","coordinates":[-0.14855036930207904,51.440887644856325]},"properties":{"OBJECTID":277,"FULL_ID":"10/880709","SITE_TYPE":"TB","LOCATION":"BEDFORD HILL / LARCH CLOSE","SITE_TYPE_DESC":"CCTV Borough Camera (TB)","EASTING":528774,"NORTHING":172947}},{"type":"Feature","id":278,"geometry":{"type":"Point","coordinates":[-0.14764563408173398,51.452581947022864]},"properties":{"OBJECTID":278,"FULL_ID":"10/880721","SITE_TYPE":"TB","LOCATION":"WESTBURY PARADE","SITE_TYPE_DESC":"CCTV Borough Camera (TB)","EASTING":528804,"NORTHING":174249}},{"type":"Feature","id":279,"geometry":{"type":"Point","coordinates":[-0.14769937564617558,51.453032432838754]},"properties":{"OBJECTID":279,"FULL_ID":"10/880722","SITE_TYPE":"TB","LOCATION":"NIGHTINGALE LANE","SITE_TYPE_DESC":"CCTV Borough Camera (TB)","EASTING":528799,"NORTHING":174299}},{"type":"Feature","id":280,"geometry":{"type":"Point","coordinates":[-0.12588528572752841,51.440230644435665]},"properties":{"OBJECTID":280,"FULL_ID":"09/880098","SITE_TYPE":"TB","LOCATION":"0011100098 - A23 STREATHAM HILL / BARRHILL ROAD","SITE_TYPE_DESC":"CCTV Borough Camera (TB)","EASTING":530351,"NORTHING":172914}},{"type":"Feature","id":281,"geometry":{"type":"Point","coordinates":[-0.13606390963277473,51.430195186438823]},"properties":{"OBJECTID":281,"FULL_ID":"09/880099","SITE_TYPE":"TB","LOCATION":"0011100099 - A214 TOOTING BEC ROAD / TOOTING BEC GARDENS / OPP THIRLMERE ROAD","SITE_TYPE_DESC":"CCTV Borough Camera (TB)","EASTING":529672,"NORTHING":171780}},{"type":"Feature","id":282,"geometry":{"type":"Point","coordinates":[-0.13503689908254196,51.431392883949783]},"properties":{"OBJECTID":282,"FULL_ID":"09/880100","SITE_TYPE":"TB","LOCATION":"0011100100 - B242 GARRAD'S ROAD / BECMEAD AVENUE","SITE_TYPE_DESC":"CCTV Borough Camera (TB)","EASTING":529740,"NORTHING":171915}},{"type":"Feature","id":283,"geometry":{"type":"Point","coordinates":[-0.13560621468329245,51.43295768788974]},"properties":{"OBJECTID":283,"FULL_ID":"09/880101","SITE_TYPE":"TB","LOCATION":"0011100101 - B242 GARRAD'S ROAD / WOODBOURNE AVENUE","SITE_TYPE_DESC":"CCTV Borough Camera (TB)","EASTING":529696,"NORTHING":172088}},{"type":"Feature","id":284,"geometry":{"type":"Point","coordinates":[-0.1018628680137276,51.430680219597576]},"properties":{"OBJECTID":284,"FULL_ID":"09/880126","SITE_TYPE":"TB","LOCATION":"0011100126 - A215 NORWOOD HIGH STREET / OPP LANGMEAD STREET","SITE_TYPE_DESC":"CCTV Borough Camera (TB)","EASTING":532048,"NORTHING":171895}},{"type":"Feature","id":285,"geometry":{"type":"Point","coordinates":[-0.10237715580132263,51.431461934728688]},"properties":{"OBJECTID":285,"FULL_ID":"09/880127","SITE_TYPE":"TB","LOCATION":"0011100127 - A215 NORWOOD HIGH STREET / AUKLAND HILL","SITE_TYPE_DESC":"CCTV Borough Camera (TB)","EASTING":532010,"NORTHING":171981}},{"type":"Feature","id":286,"geometry":{"type":"Point","coordinates":[-0.10267789963072964,51.432536951736544]},"properties":{"OBJECTID":286,"FULL_ID":"09/880128","SITE_TYPE":"TB","LOCATION":"0011100128 - A215 NORWOOD HIGH STREET / DUNBAR STREET","SITE_TYPE_DESC":"CCTV Borough Camera (TB)","EASTING":531986,"NORTHING":172100}},{"type":"Feature","id":287,"geometry":{"type":"Point","coordinates":[-0.11108662035522446,51.481197972020233]},"properties":{"OBJECTID":287,"FULL_ID":"09/880130","SITE_TYPE":"TB","LOCATION":"0011100130 - A202 CAMBERWELL NEW ROAD / A23 BRIXTON ROAD","SITE_TYPE_DESC":"CCTV Borough Camera (TB)","EASTING":531262,"NORTHING":177496}},{"type":"Feature","id":288,"geometry":{"type":"Point","coordinates":[-0.11217779683337568,51.481629206487256]},"properties":{"OBJECTID":288,"FULL_ID":"09/880131","SITE_TYPE":"TB","LOCATION":"0011100131 - A202 CAMBERWELL NEW ROAD / A3 CLAPHAM ROAD (OPP OVAL STATION)","SITE_TYPE_DESC":"CCTV Borough Camera (TB)","EASTING":531185,"NORTHING":177542}},{"type":"Feature","id":289,"geometry":{"type":"Point","coordinates":[-0.11178540943424405,51.482063530381616]},"properties":{"OBJECTID":289,"FULL_ID":"09/880132","SITE_TYPE":"TB","LOCATION":"0011100132 - A3 KENNINGTON PARK ROAD / A202 CAMBERWELL NEW ROAD","SITE_TYPE_DESC":"CCTV Borough Camera (TB)","EASTING":531211,"NORTHING":177591}},{"type":"Feature","id":290,"geometry":{"type":"Point","coordinates":[-0.11035145447651894,51.484351554198888]},"properties":{"OBJECTID":290,"FULL_ID":"09/880133","SITE_TYPE":"TB","LOCATION":"0011100133 - A3 KENNINGTON PARK ROAD / A23 KENNINGTON ROAD","SITE_TYPE_DESC":"CCTV Borough Camera (TB)","EASTING":531304,"NORTHING":177848}},{"type":"Feature","id":291,"geometry":{"type":"Point","coordinates":[-0.11436544989816125,51.479569109673811]},"properties":{"OBJECTID":291,"FULL_ID":"09/880134","SITE_TYPE":"TB","LOCATION":"0011100134 - A3 CLAPHAM ROAD / OPP FENTIMAN ROAD","SITE_TYPE_DESC":"CCTV Borough Camera (TB)","EASTING":531039,"NORTHING":177309}},{"type":"Feature","id":292,"geometry":{"type":"Point","coordinates":[-0.15100424317970321,51.455665515668549]},"properties":{"OBJECTID":292,"FULL_ID":"10/607001","SITE_TYPE":"UX","LOCATION":"WINDMILL DRIVE BY THE AVENUE","SITE_TYPE_DESC":"Ultra Low Emission Zone Camera (UX)","EASTING":528562,"NORTHING":174586}},{"type":"Feature","id":293,"geometry":{"type":"Point","coordinates":[-0.15641591468758356,51.461398135854594]},"properties":{"OBJECTID":293,"FULL_ID":"10/607002","SITE_TYPE":"UX","LOCATION":"MARNEY ROAD BY CLAPHAM COMMON NORTH SIDE","SITE_TYPE_DESC":"Ultra Low Emission Zone Camera (UX)","EASTING":528170,"NORTHING":175214}},{"type":"Feature","id":294,"geometry":{"type":"Point","coordinates":[-0.15722872841331656,51.461590765402995]},"properties":{"OBJECTID":294,"FULL_ID":"10/607003","SITE_TYPE":"UX","LOCATION":"SUGDEN ROAD BY CLAPHAM COMMON NORTH SIDE","SITE_TYPE_DESC":"Ultra Low Emission Zone Camera (UX)","EASTING":528113,"NORTHING":175234}},{"type":"Feature","id":295,"geometry":{"type":"Point","coordinates":[-0.11123493518489644,51.479698582954207]},"properties":{"OBJECTID":295,"FULL_ID":"09/880135","SITE_TYPE":"TB","LOCATION":"0011100135 - A23 BRIXTON ROAD / CRANMER ROAD","SITE_TYPE_DESC":"CCTV Borough Camera (TB)","EASTING":531256,"NORTHING":177329}},{"type":"Feature","id":296,"geometry":{"type":"Point","coordinates":[-0.10784162873736915,51.479913659618624]},"properties":{"OBJECTID":296,"FULL_ID":"09/880136","SITE_TYPE":"TB","LOCATION":"0011100136 - A202 CAMBERWELL NEW ROAD / FOXLEY ROAD","SITE_TYPE_DESC":"CCTV Borough Camera (TB)","EASTING":531491,"NORTHING":177359}},{"type":"Feature","id":297,"geometry":{"type":"Point","coordinates":[-0.10376930904673047,51.478094303652661]},"properties":{"OBJECTID":297,"FULL_ID":"09/880137","SITE_TYPE":"TB","LOCATION":"0011100137 - A202 CAMBERWELL NEW ROAD / VASSALL ROAD","SITE_TYPE_DESC":"CCTV Borough Camera (TB)","EASTING":531779,"NORTHING":177164}},{"type":"Feature","id":298,"geometry":{"type":"Point","coordinates":[-0.10999568058337074,51.502007560470922]},"properties":{"OBJECTID":298,"FULL_ID":"09/880138","SITE_TYPE":"TB","LOCATION":"0011100138 - A301 WATERLOO ROAD / B300 BAYLIS ROAD","SITE_TYPE_DESC":"CCTV Borough Camera (TB)","EASTING":531278,"NORTHING":179812}},{"type":"Feature","id":299,"geometry":{"type":"Point","coordinates":[-0.11062823219864606,51.501694012196637]},"properties":{"OBJECTID":299,"FULL_ID":"09/880139","SITE_TYPE":"TB","LOCATION":"0011100139 - B300 BAYLIS ROAD / LOWER MARSH / SPUR ROAD","SITE_TYPE_DESC":"CCTV Borough Camera (TB)","EASTING":531235,"NORTHING":179776}},{"type":"Feature","id":300,"geometry":{"type":"Point","coordinates":[-0.11251469105675585,51.501022950182978]},"properties":{"OBJECTID":300,"FULL_ID":"09/880140","SITE_TYPE":"TB","LOCATION":"0011100140 - LOWER MARSH / LAUNCELOT STREET","SITE_TYPE_DESC":"CCTV Borough Camera (TB)","EASTING":531106,"NORTHING":179698}},{"type":"Feature","id":301,"geometry":{"type":"Point","coordinates":[-0.11472461556182577,51.49984447241885]},"properties":{"OBJECTID":301,"FULL_ID":"09/880141","SITE_TYPE":"TB","LOCATION":"0011100141 - A23 WESTMINSTER BRIDGE ROAD / UPPER MARSH","SITE_TYPE_DESC":"CCTV Borough Camera (TB)","EASTING":530956,"NORTHING":179563}},{"type":"Feature","id":302,"geometry":{"type":"Point","coordinates":[-0.11200793892632051,51.498991425318962]},"properties":{"OBJECTID":302,"FULL_ID":"09/880142","SITE_TYPE":"TB","LOCATION":"0011100142 - B300 BAYLIS ROAD / A23 WESTMINSTER BRIDGE ROAD","SITE_TYPE_DESC":"CCTV Borough Camera (TB)","EASTING":531147,"NORTHING":179473}},{"type":"Feature","id":303,"geometry":{"type":"Point","coordinates":[-0.11159781437378459,51.500198843117275]},"properties":{"OBJECTID":303,"FULL_ID":"09/880143","SITE_TYPE":"TB","LOCATION":"0011100143 - B300 BAYLIS ROAD / FRAZIER STREET","SITE_TYPE_DESC":"CCTV Borough Camera (TB)","EASTING":531172,"NORTHING":179608}},{"type":"Feature","id":304,"geometry":{"type":"Point","coordinates":[-0.11511772746106426,51.498349002826366]},"properties":{"OBJECTID":304,"FULL_ID":"09/880144","SITE_TYPE":"TB","LOCATION":"0011100144 - ROYAL STREET / CARLISLE LANE","SITE_TYPE_DESC":"CCTV Borough Camera (TB)","EASTING":530933,"NORTHING":179396}},{"type":"Feature","id":305,"geometry":{"type":"Point","coordinates":[-0.149835015581854,51.469639666255702]},"properties":{"OBJECTID":305,"FULL_ID":"10/880517","SITE_TYPE":"TB","LOCATION":"QUEENSTOWN ROAD / ST PHILLIPS SQUARE","SITE_TYPE_DESC":"CCTV Borough Camera (TB)","EASTING":528604,"NORTHING":176142}},{"type":"Feature","id":306,"geometry":{"type":"Point","coordinates":[-0.15068552276040381,51.467476860106068]},"properties":{"OBJECTID":306,"FULL_ID":"10/880518","SITE_TYPE":"TB","LOCATION":"QUEENSTOWN ROAD / ROBERTSON STREET","SITE_TYPE_DESC":"CCTV Borough Camera (TB)","EASTING":528551,"NORTHING":175900}},{"type":"Feature","id":307,"geometry":{"type":"Point","coordinates":[-0.11075350434361142,51.460320437006125]},"properties":{"OBJECTID":307,"FULL_ID":"09/880172","SITE_TYPE":"TB","LOCATION":"RAILTON ROAD - VINING STREET","SITE_TYPE_DESC":"CCTV Borough Camera (TB)","EASTING":531345,"NORTHING":175175}},{"type":"Feature","id":308,"geometry":{"type":"Point","coordinates":[-0.11328764533679234,51.454372040698495]},"properties":{"OBJECTID":308,"FULL_ID":"09/880174","SITE_TYPE":"TB","LOCATION":"TULSE HILL - COSSAR MEWS","SITE_TYPE_DESC":"CCTV Borough Camera (TB)","EASTING":531186,"NORTHING":174509}},{"type":"Feature","id":309,"geometry":{"type":"Point","coordinates":[-0.10897498398728073,51.463646073240476]},"properties":{"OBJECTID":309,"FULL_ID":"09/880175","SITE_TYPE":"TB","LOCATION":"BRIXTON STATION ROAD - GRESHAM ROAD","SITE_TYPE_DESC":"CCTV Borough Camera (TB)","EASTING":531459,"NORTHING":175548}},{"type":"Feature","id":310,"geometry":{"type":"Point","coordinates":[-0.10229332341095175,51.452926527471902]},"properties":{"OBJECTID":310,"FULL_ID":"09/880176","SITE_TYPE":"TB","LOCATION":"RAILTON ROAD - HERNE HILL STATION","SITE_TYPE_DESC":"CCTV Borough Camera (TB)","EASTING":531954,"NORTHING":174368}},{"type":"Feature","id":311,"geometry":{"type":"Point","coordinates":[-0.11241851877474199,51.498818179032547]},"properties":{"OBJECTID":311,"FULL_ID":"09/880177","SITE_TYPE":"TB","LOCATION":"0015600030 - KENNINGTON ROAD - WESTMINSTER BRIDGE ROAD","SITE_TYPE_DESC":"CCTV Borough Camera (TB)","EASTING":531119,"NORTHING":179453}},{"type":"Feature","id":312,"geometry":{"type":"Point","coordinates":[-0.11564544407678146,51.499526539039685]},"properties":{"OBJECTID":312,"FULL_ID":"09/880145","SITE_TYPE":"TB","LOCATION":"0011100145 - UPPER MARSH WEST OF RAILWAY LINE","SITE_TYPE_DESC":"CCTV Borough Camera (TB)","EASTING":530893,"NORTHING":179526}},{"type":"Feature","id":313,"geometry":{"type":"Point","coordinates":[-0.11357647296209269,51.497991491522178]},"properties":{"OBJECTID":313,"FULL_ID":"09/880146","SITE_TYPE":"TB","LOCATION":"0011100146 - CENTAUR STREET / HERCULES ROAD","SITE_TYPE_DESC":"CCTV Borough Camera (TB)","EASTING":531041,"NORTHING":179359}},{"type":"Feature","id":314,"geometry":{"type":"Point","coordinates":[-0.10883118937346152,51.50090066434246]},"properties":{"OBJECTID":314,"FULL_ID":"09/880147","SITE_TYPE":"TB","LOCATION":"0011100147 - A301 WATERLOO ROAD / PEARMAN STREET","SITE_TYPE_DESC":"CCTV Borough Camera (TB)","EASTING":531362,"NORTHING":179691}},{"type":"Feature","id":1,"geometry":{"type":"Point","coordinates":[-0.11923193911101891,51.511445538574691]},"properties":{"OBJECTID":1,"FULL_ID":"01/016590","SITE_TYPE":"TV","LOCATION":"0000106590 - THE STRAND BY WELLINGTON STREET","SITE_TYPE_DESC":"CCTV Streets System Camera (TV)","EASTING":530610,"NORTHING":180845}},{"type":"Feature","id":2,"geometry":{"type":"Point","coordinates":[-0.12890189730771656,51.494927664502974]},"properties":{"OBJECTID":2,"FULL_ID":"01/014235","SITE_TYPE":"TV","LOCATION":"0000104235 - HORSEFERRY ROAD - MARSHAM STREET","SITE_TYPE_DESC":"CCTV Streets System Camera (TV)","EASTING":529986,"NORTHING":178991}},{"type":"Feature","id":3,"geometry":{"type":"Point","coordinates":[-0.1297312516547936,51.488744914224029]},"properties":{"OBJECTID":3,"FULL_ID":"01/014327","SITE_TYPE":"TV","LOCATION":"0000104327 - VAUXHALL BRIDGE ROAD BY MILLBANK","SITE_TYPE_DESC":"CCTV Streets System Camera (TV)","EASTING":529946,"NORTHING":178302}},{"type":"Feature","id":4,"geometry":{"type":"Point","coordinates":[-0.13474408191054116,51.488743815674773]},"properties":{"OBJECTID":4,"FULL_ID":"01/016518","SITE_TYPE":"TV","LOCATION":"0000106518 - SAINT GEORGES SQUARE - LUPUS STREET","SITE_TYPE_DESC":"CCTV Streets System Camera (TV)","EASTING":529598,"NORTHING":178293}},{"type":"Feature","id":5,"geometry":{"type":"Point","coordinates":[-0.11511046180218934,51.510740899569946]},"properties":{"OBJECTID":5,"FULL_ID":"01/012500","SITE_TYPE":"TV","LOCATION":"0000102500 - A3211 VICTORIA EMBANKMENT - TEMPLE PLACE","SITE_TYPE_DESC":"CCTV Streets System Camera (TV)","EASTING":530898,"NORTHING":180774}},{"type":"Feature","id":6,"geometry":{"type":"Point","coordinates":[-0.13143522560090454,51.489698323869348]},"properties":{"OBJECTID":6,"FULL_ID":"01/014328","SITE_TYPE":"TV","LOCATION":"0000104328 - A202 VAUXHALL BRIDGE ROAD BY DRUMMOND GATE","SITE_TYPE_DESC":"CCTV Streets System Camera (TV)","EASTING":529825,"NORTHING":178405}},{"type":"Feature","id":7,"geometry":{"type":"Point","coordinates":[-0.12625794774356677,51.501081445745271]},"properties":{"OBJECTID":7,"FULL_ID":"01/016501","SITE_TYPE":"TV","LOCATION":"0000106501 - WHITEHALL BY PARLIAMENT SQUARE","SITE_TYPE_DESC":"CCTV Streets System Camera (TV)","EASTING":530152,"NORTHING":179680}},{"type":"Feature","id":8,"geometry":{"type":"Point","coordinates":[-0.12223337625282298,51.506448696682959]},"properties":{"OBJECTID":8,"FULL_ID":"01/017500","SITE_TYPE":"TV","LOCATION":"0000107500 - NORTHUMBERLAND AVENUE BY VICTORIA EMBANKMENT","SITE_TYPE_DESC":"CCTV Streets System Camera (TV)","EASTING":530416,"NORTHING":180284}},{"type":"Feature","id":9,"geometry":{"type":"Point","coordinates":[-0.10441833352790245,51.507241278006468]},"properties":{"OBJECTID":9,"FULL_ID":"08/013601","SITE_TYPE":"TV","LOCATION":"0000103601 - A201 BLACKFRIARS ROAD BY BLACKFRIARS BRIDGE","SITE_TYPE_DESC":"CCTV Streets System Camera (TV)","EASTING":531650,"NORTHING":180404}},{"type":"Feature","id":10,"geometry":{"type":"Point","coordinates":[-0.10028945660398327,51.494953300140565]},"properties":{"OBJECTID":10,"FULL_ID":"08/013603","SITE_TYPE":"TV","LOCATION":"0000103603 - A201 NEW KENT ROAD BY ELEPHANT AND CASTLE NORTH","SITE_TYPE_DESC":"CCTV Streets System Camera (TV)","EASTING":531972,"NORTHING":179045}},{"type":"Feature","id":11,"geometry":{"type":"Point","coordinates":[-0.10048443293570489,51.493382724422062]},"properties":{"OBJECTID":11,"FULL_ID":"08/013604","SITE_TYPE":"TV","LOCATION":"0000103604 - A3 ELEPHANT & CASTLE BY A215 WALWORTH ROAD","SITE_TYPE_DESC":"CCTV Streets System Camera (TV)","EASTING":531963,"NORTHING":178870}},{"type":"Feature","id":12,"geometry":{"type":"Point","coordinates":[-0.10464643815341201,51.504870871170915]},"properties":{"OBJECTID":12,"FULL_ID":"08/013609","SITE_TYPE":"TV","LOCATION":"0000103609 - BLACKFRIARS ROAD - DOLBEN STREET MEYMOTT STREET","SITE_TYPE_DESC":"CCTV Streets System Camera (TV)","EASTING":531641,"NORTHING":180140}},{"type":"Feature","id":13,"geometry":{"type":"Point","coordinates":[-0.09812832462732414,51.491842748641396]},"properties":{"OBJECTID":13,"FULL_ID":"08/013850","SITE_TYPE":"TV","LOCATION":"0000103850 - WALWORTH ROAD BY HEYGATE STREET","SITE_TYPE_DESC":"CCTV Streets System Camera (TV)","EASTING":532131,"NORTHING":178703}},{"type":"Feature","id":14,"geometry":{"type":"Point","coordinates":[-0.10450080869688136,51.501783994239894]},"properties":{"OBJECTID":14,"FULL_ID":"08/013610","SITE_TYPE":"TV","LOCATION":"0000103610 - BLACKFRIARS ROAD - POCOCK STREET","SITE_TYPE_DESC":"CCTV Streets System Camera (TV)","EASTING":531660,"NORTHING":179797}},{"type":"Feature","id":15,"geometry":{"type":"Point","coordinates":[-0.10375078163148797,51.497985917261111]},"properties":{"OBJECTID":15,"FULL_ID":"08/013611","SITE_TYPE":"TV","LOCATION":"0000103611 - LONDON ROAD - THOMAS DOYLE STREET","SITE_TYPE_DESC":"CCTV Streets System Camera (TV)","EASTING":531723,"NORTHING":179376}},{"type":"Feature","id":16,"geometry":{"type":"Point","coordinates":[-0.10356641161600046,51.495833667623508]},"properties":{"OBJECTID":16,"FULL_ID":"08/013612","SITE_TYPE":"TV","LOCATION":"0000103612 - ST GEORGE'S ROAD BY HAYLES STREET","SITE_TYPE_DESC":"CCTV Streets System Camera (TV)","EASTING":531742,"NORTHING":179137}},{"type":"Feature","id":17,"geometry":{"type":"Point","coordinates":[-0.11228988615219053,51.476469211017559]},"properties":{"OBJECTID":17,"FULL_ID":"09/014523","SITE_TYPE":"TV","LOCATION":"0000104523 - A23 BRIXTON ROAD BY VASSALL ROAD","SITE_TYPE_DESC":"CCTV Streets System Camera (TV)","EASTING":531192,"NORTHING":176968}},{"type":"Feature","id":18,"geometry":{"type":"Point","coordinates":[-0.13127285184355361,51.427034361237602]},"properties":{"OBJECTID":18,"FULL_ID":"09/014524","SITE_TYPE":"TV","LOCATION":"0000104524 - STREATHAM HIGH ROAD BY STANTHORPE ROAD","SITE_TYPE_DESC":"CCTV Streets System Camera (TV)","EASTING":530014,"NORTHING":171437}},{"type":"Feature","id":19,"geometry":{"type":"Point","coordinates":[-0.1350589317836775,51.42873137152143]},"properties":{"OBJECTID":19,"FULL_ID":"09/014525","SITE_TYPE":"TV","LOCATION":"0000104525 - AMBLESIDE AVENUE - RYDAL ROAD","SITE_TYPE_DESC":"CCTV Streets System Camera (TV)","EASTING":529746,"NORTHING":171619}},{"type":"Feature","id":20,"geometry":{"type":"Point","coordinates":[-0.11406143089442071,51.465283782790429]},"properties":{"OBJECTID":20,"FULL_ID":"09/014526","SITE_TYPE":"TV","LOCATION":"0000104526 - BRIXTON ROAD BY STOCKWELL ROAD","SITE_TYPE_DESC":"CCTV Streets System Camera (TV)","EASTING":531101,"NORTHING":175721}},{"type":"Feature","id":21,"geometry":{"type":"Point","coordinates":[-0.11626881473627328,51.46062504273776]},"properties":{"OBJECTID":21,"FULL_ID":"09/014527","SITE_TYPE":"TV","LOCATION":"0000104527 - BRIXTON HILL BY  EFFRA ROAD","SITE_TYPE_DESC":"CCTV Streets System Camera (TV)","EASTING":530961,"NORTHING":175199}},{"type":"Feature","id":22,"geometry":{"type":"Point","coordinates":[-0.12579532963869422,51.440319133413226]},"properties":{"OBJECTID":22,"FULL_ID":"09/014528","SITE_TYPE":"TV","LOCATION":"0000104528 - STREATHAM HILL - BARRHILL ROAD","SITE_TYPE_DESC":"CCTV Streets System Camera (TV)","EASTING":530357,"NORTHING":172924}},{"type":"Feature","id":23,"geometry":{"type":"Point","coordinates":[-0.12769988317523356,51.436320813602087]},"properties":{"OBJECTID":23,"FULL_ID":"09/014529","SITE_TYPE":"TV","LOCATION":"0000104529 - STREATHAM HIGH ROAD BY MOUNT EPHRIAM ROAD","SITE_TYPE_DESC":"CCTV Streets System Camera (TV)","EASTING":530236,"NORTHING":172476}},{"type":"Feature","id":24,"geometry":{"type":"Point","coordinates":[-0.1111494772617963,51.488393149917862]},"properties":{"OBJECTID":24,"FULL_ID":"09/014303","SITE_TYPE":"TV","LOCATION":"0000104303 - A3204 KENNINGTON LANE BY A23 KENNINGTON ROAD","SITE_TYPE_DESC":"CCTV Streets System Camera (TV)","EASTING":531237,"NORTHING":178296}},{"type":"Feature","id":25,"geometry":{"type":"Point","coordinates":[-0.11675891811105367,51.486846687719328]},"properties":{"OBJECTID":25,"FULL_ID":"09/014304","SITE_TYPE":"TV","LOCATION":"0000104304 - KENNINGTON LANE - VAUXHALL STREET","SITE_TYPE_DESC":"CCTV Streets System Camera (TV)","EASTING":530852,"NORTHING":178114}},{"type":"Feature","id":26,"geometry":{"type":"Point","coordinates":[-0.10797434045230266,51.489933679833349]},"properties":{"OBJECTID":26,"FULL_ID":"09/014305","SITE_TYPE":"TV","LOCATION":"0000104305 - KENNINGTON LANE - CHESTER WAY","SITE_TYPE_DESC":"CCTV Streets System Camera (TV)","EASTING":531453,"NORTHING":178473}},{"type":"Feature","id":27,"geometry":{"type":"Point","coordinates":[-0.12034580340834103,51.485438420963561]},"properties":{"OBJECTID":27,"FULL_ID":"09/014329","SITE_TYPE":"TV","LOCATION":"0000104329 - HARLEYFORD ROAD BY VAUXHALL GROVE","SITE_TYPE_DESC":"CCTV Streets System Camera (TV)","EASTING":530607,"NORTHING":177951}},{"type":"Feature","id":28,"geometry":{"type":"Point","coordinates":[-0.11597992993704465,51.483030260611024]},"properties":{"OBJECTID":28,"FULL_ID":"09/014331","SITE_TYPE":"TV","LOCATION":"0000104331 - A202 KENNINGTON OVAL BY ARCHBISHOP TENNISONS SCHOOL","SITE_TYPE_DESC":"CCTV Streets System Camera (TV)","EASTING":530917,"NORTHING":177691}},{"type":"Feature","id":29,"geometry":{"type":"Point","coordinates":[-0.10131705287783528,51.452173300316247]},"properties":{"OBJECTID":29,"FULL_ID":"09/013865","SITE_TYPE":"TV","LOCATION":"0000103865 - A215 HERNE HILLA - 215 NORWOOD RD","SITE_TYPE_DESC":"CCTV Streets System Camera (TV)","EASTING":532024,"NORTHING":174286}},{"type":"Feature","id":30,"geometry":{"type":"Point","coordinates":[-0.10843962430309069,51.506874542037615]},"properties":{"OBJECTID":30,"FULL_ID":"09/014220","SITE_TYPE":"TV","LOCATION":"0000104220 - STAMFORD STREET - BROADWALL","SITE_TYPE_DESC":"CCTV Streets System Camera (TV)","EASTING":531372,"NORTHING":180356}},{"type":"Feature","id":31,"geometry":{"type":"Point","coordinates":[-0.11400752455806266,51.505345503079987]},"properties":{"OBJECTID":31,"FULL_ID":"09/014223","SITE_TYPE":"TV","LOCATION":"0000104223 - WATERLOO BRIDGE SOUTHSIDE / IMAX ROUNDABOUT","SITE_TYPE_DESC":"CCTV Streets System Camera (TV)","EASTING":530990,"NORTHING":180176}},{"type":"Feature","id":32,"geometry":{"type":"Point","coordinates":[-0.11462547229085657,51.504339256255591]},"properties":{"OBJECTID":32,"FULL_ID":"09/014225","SITE_TYPE":"TV","LOCATION":"0000104225 - A3200 YORK ROAD BY MEPHAM STREET","SITE_TYPE_DESC":"CCTV Streets System Camera (TV)","EASTING":530950,"NORTHING":180063}},{"type":"Feature","id":33,"geometry":{"type":"Point","coordinates":[-0.11631946817256832,51.50239706067417]},"properties":{"OBJECTID":33,"FULL_ID":"09/014226","SITE_TYPE":"TV","LOCATION":"0000104226 - A3200 YORK ROAD - LEAKE STREET","SITE_TYPE_DESC":"CCTV Streets System Camera (TV)","EASTING":530838,"NORTHING":179844}},{"type":"Feature","id":34,"geometry":{"type":"Point","coordinates":[-0.11582198846575123,51.501184040782356]},"properties":{"OBJECTID":34,"FULL_ID":"09/014227","SITE_TYPE":"TV","LOCATION":"0000104227 - ADDINGTON STREET - WESTMINSTER BRIDGE ROAD","SITE_TYPE_DESC":"CCTV Streets System Camera (TV)","EASTING":530876,"NORTHING":179710}},{"type":"Feature","id":35,"geometry":{"type":"Point","coordinates":[-0.11745942770541005,51.498512511422604]},"properties":{"OBJECTID":35,"FULL_ID":"09/014250","SITE_TYPE":"TV","LOCATION":"0000104250 - A3036 LAMBETH PALACE ROAD BY ROYAL STREET","SITE_TYPE_DESC":"CCTV Streets System Camera (TV)","EASTING":530770,"NORTHING":179410}},{"type":"Feature","id":36,"geometry":{"type":"Point","coordinates":[-0.12138817396031461,51.493719427303631]},"properties":{"OBJECTID":36,"FULL_ID":"09/014252","SITE_TYPE":"TV","LOCATION":"0000104252 - ALBERT EMBANKMENT BY LAMBETH BRIDGE","SITE_TYPE_DESC":"CCTV Streets System Camera (TV)","EASTING":530511,"NORTHING":178870}},{"type":"Feature","id":37,"geometry":{"type":"Point","coordinates":[-0.12258388502877718,51.490213428299136]},"properties":{"OBJECTID":37,"FULL_ID":"09/014254","SITE_TYPE":"TV","LOCATION":"0000104254 - ALBERT EMBANKMENT BY TINWORTH STREET","SITE_TYPE_DESC":"CCTV Streets System Camera (TV)","EASTING":530438,"NORTHING":178478}},{"type":"Feature","id":38,"geometry":{"type":"Point","coordinates":[-0.12292678946369782,51.488879004306675]},"properties":{"OBJECTID":38,"FULL_ID":"09/014255","SITE_TYPE":"TV","LOCATION":"0000104255 - ALBERT EMBANKMENT BY GLASSHOUSE WALK","SITE_TYPE_DESC":"CCTV Streets System Camera (TV)","EASTING":530418,"NORTHING":178329}},{"type":"Feature","id":39,"geometry":{"type":"Point","coordinates":[-0.12370665603042394,51.486373526454678]},"properties":{"OBJECTID":39,"FULL_ID":"09/014256","SITE_TYPE":"TV","LOCATION":"0000104256 - VAUXHALL CROSS - ALBERT EMBANKMENT - VAUXHALL BRIDGESOUTH LAMBETH PLACE","SITE_TYPE_DESC":"CCTV Streets System Camera (TV)","EASTING":530371,"NORTHING":178049}},{"type":"Feature","id":40,"geometry":{"type":"Point","coordinates":[-0.12188632596560003,51.486155541270037]},"properties":{"OBJECTID":40,"FULL_ID":"09/014300","SITE_TYPE":"TV","LOCATION":"0000104300 - VAUXHALL CROSS BY KENNINGTON LANE","SITE_TYPE_DESC":"CCTV Streets System Camera (TV)","EASTING":530498,"NORTHING":178028}},{"type":"Feature","id":41,"geometry":{"type":"Point","coordinates":[-0.12033535404389467,51.474476179640007]},"properties":{"OBJECTID":41,"FULL_ID":"09/014613","SITE_TYPE":"TV","LOCATION":"0000104613 - A3 CLAPHAM RD SOUTH OF LANDSDOWNE WAY AND  STOCKWELL PARK RD (SOUTH WEST SIDE)","SITE_TYPE_DESC":"CCTV Streets System Camera (TV)","EASTING":530639,"NORTHING":176732}},{"type":"Feature","id":42,"geometry":{"type":"Point","coordinates":[-0.11952171194337308,51.475002695602832]},"properties":{"OBJECTID":42,"FULL_ID":"09/014614","SITE_TYPE":"TV","LOCATION":"0000104614 - A3 CLAPHAM RD NORTH OF LANDSDOWNE WAY AND  STOCKWELL PARK RD (NORTH EAST SIDE)","SITE_TYPE_DESC":"CCTV Streets System Camera (TV)","EASTING":530694,"NORTHING":176792}},{"type":"Feature","id":43,"geometry":{"type":"Point","coordinates":[-0.12316465328482791,51.471850671458199]},"properties":{"OBJECTID":43,"FULL_ID":"09/014615","SITE_TYPE":"TV","LOCATION":"0000104615 - A203 CLAPHAM ROAD BY A203 SOUTH LAMBETH ROAD","SITE_TYPE_DESC":"CCTV Streets System Camera (TV)","EASTING":530450,"NORTHING":176435}},{"type":"Feature","id":44,"geometry":{"type":"Point","coordinates":[-0.12361032980722041,51.471165367447909]},"properties":{"OBJECTID":44,"FULL_ID":"09/014616","SITE_TYPE":"TV","LOCATION":"0000104616 - A3 CLAPHAM ROAD BY LINGHAM STREET","SITE_TYPE_DESC":"CCTV Streets System Camera (TV)","EASTING":530421,"NORTHING":176358}},{"type":"Feature","id":45,"geometry":{"type":"Point","coordinates":[-0.1280661601179344,51.467837353344358]},"properties":{"OBJECTID":45,"FULL_ID":"09/014618","SITE_TYPE":"TV","LOCATION":"0000104618 - A3 CLAPHAM ROAD BY MAYFLOWER ROAD","SITE_TYPE_DESC":"CCTV Streets System Camera (TV)","EASTING":530121,"NORTHING":175980}},{"type":"Feature","id":46,"geometry":{"type":"Point","coordinates":[-0.12965806255954151,51.465524654037665]},"properties":{"OBJECTID":46,"FULL_ID":"09/014620","SITE_TYPE":"TV","LOCATION":"0000104620 - A3 CLAPHAM ROAD BY B221 BEDFORD ROAD","SITE_TYPE_DESC":"CCTV Streets System Camera (TV)","EASTING":530017,"NORTHING":175720}},{"type":"Feature","id":47,"geometry":{"type":"Point","coordinates":[-0.13140462614054391,51.46435647318912]},"properties":{"OBJECTID":47,"FULL_ID":"09/014621","SITE_TYPE":"TV","LOCATION":"0000104621 - A3 CLAPHAM HIGH STREET BY ARISTOTLE ROAD","SITE_TYPE_DESC":"CCTV Streets System Camera (TV)","EASTING":529899,"NORTHING":175587}},{"type":"Feature","id":48,"geometry":{"type":"Point","coordinates":[-0.13952032963205407,51.460915440179022]},"properties":{"OBJECTID":48,"FULL_ID":"09/014650","SITE_TYPE":"TV","LOCATION":"0000104650 - A3 CLAPHAM COMMON SOUTHSIDE BY A3 LONG ROAD","SITE_TYPE_DESC":"CCTV Streets System Camera (TV)","EASTING":529345,"NORTHING":175190}},{"type":"Feature","id":49,"geometry":{"type":"Point","coordinates":[-0.14607128280948103,51.454139781769115]},"properties":{"OBJECTID":49,"FULL_ID":"09/014651","SITE_TYPE":"TV","LOCATION":"0000104651 - A205 BY CLAPHAM COMMON SOUTHSIDE","SITE_TYPE_DESC":"CCTV Streets System Camera (TV)","EASTING":528909,"NORTHING":174425}},{"type":"Feature","id":50,"geometry":{"type":"Point","coordinates":[-0.13727654291723973,51.462282673306063]},"properties":{"OBJECTID":50,"FULL_ID":"09/014658","SITE_TYPE":"TV","LOCATION":"0000104658 - CLAPHAM HIGH STREET BY VENN STREET","SITE_TYPE_DESC":"CCTV Streets System Camera (TV)","EASTING":529497,"NORTHING":175346}},{"type":"Feature","id":51,"geometry":{"type":"Point","coordinates":[-0.11240746368171865,51.498737066406257]},"properties":{"OBJECTID":51,"FULL_ID":"09/016510","SITE_TYPE":"TV","LOCATION":"0000106510 - BAYLIS ROAD BY WESTMINSTER BRIDGE ROAD","SITE_TYPE_DESC":"CCTV Streets System Camera (TV)","EASTING":531120,"NORTHING":179444}},{"type":"Feature","id":52,"geometry":{"type":"Point","coordinates":[-0.12694833858564772,51.437810597428864]},"properties":{"OBJECTID":52,"FULL_ID":"09/014513","SITE_TYPE":"TV","LOCATION":"0000104513 - A23 STREATHAM HILL BY STERNHOLD AVENUE","SITE_TYPE_DESC":"CCTV Streets System Camera (TV)","EASTING":530284,"NORTHING":172643}},{"type":"Feature","id":53,"geometry":{"type":"Point","coordinates":[-0.13098030800072297,51.429268896342997]},"properties":{"OBJECTID":53,"FULL_ID":"09/014514","SITE_TYPE":"TV","LOCATION":"0000104514 - A23 STREATHAM HIGH ROAD BY MITCHAM LANE","SITE_TYPE_DESC":"CCTV Streets System Camera (TV)","EASTING":530028,"NORTHING":171686}},{"type":"Feature","id":54,"geometry":{"type":"Point","coordinates":[-0.13103996263431075,51.4256907222656]},"properties":{"OBJECTID":54,"FULL_ID":"09/014515","SITE_TYPE":"TV","LOCATION":"0000104515 - A23 STEATHAM HIGH ROAD BY HOPTON ROAD","SITE_TYPE_DESC":"CCTV Streets System Camera (TV)","EASTING":530034,"NORTHING":171288}},{"type":"Feature","id":55,"geometry":{"type":"Point","coordinates":[-0.1292504885884552,51.421957140956401]},"properties":{"OBJECTID":55,"FULL_ID":"09/014516","SITE_TYPE":"TV","LOCATION":"0000104516 - A23 STREATHAM HIGH ROAD BY GREYHOUND LANE","SITE_TYPE_DESC":"CCTV Streets System Camera (TV)","EASTING":530169,"NORTHING":170876}},{"type":"Feature","id":56,"geometry":{"type":"Point","coordinates":[-0.12424924454842286,51.414476135629066]},"properties":{"OBJECTID":56,"FULL_ID":"09/014518","SITE_TYPE":"TV","LOCATION":"0000104518 - A23 STREATHAM HIGH ROAD BY COLMER ROAD","SITE_TYPE_DESC":"CCTV Streets System Camera (TV)","EASTING":530538,"NORTHING":170053}},{"type":"Feature","id":57,"geometry":{"type":"Point","coordinates":[-0.10544064013977947,51.498579770288202]},"properties":{"OBJECTID":57,"FULL_ID":"08/014244","SITE_TYPE":"TV","LOCATION":"0000104244 - A3202 WESTMINSTER BRIDGE ROAD - A301 WATERLOO ROAD","SITE_TYPE_DESC":"CCTV Streets System Camera (TV)","EASTING":531604,"NORTHING":179439}},{"type":"Feature","id":58,"geometry":{"type":"Point","coordinates":[-0.1049202996747477,51.498967044817185]},"properties":{"OBJECTID":58,"FULL_ID":"08/014245","SITE_TYPE":"TV","LOCATION":"0000104245 - BLACKFRIARS ROAD - SAINT GEORGES CIRCUS","SITE_TYPE_DESC":"CCTV Streets System Camera (TV)","EASTING":531639,"NORTHING":179483}},{"type":"Feature","id":59,"geometry":{"type":"Point","coordinates":[-0.095060956926937737,51.474877607204235]},"properties":{"OBJECTID":59,"FULL_ID":"08/014335","SITE_TYPE":"TV","LOCATION":"0000104335 - A202 CAMBERWELL NEW ROAD BY CAMBERWELL PASSAGE","SITE_TYPE_DESC":"CCTV Streets System Camera (TV)","EASTING":532393,"NORTHING":176822}},{"type":"Feature","id":60,"geometry":{"type":"Point","coordinates":[-0.090437900626324716,51.473858137523436]},"properties":{"OBJECTID":60,"FULL_ID":"08/014336","SITE_TYPE":"TV","LOCATION":"0000104336 - A202 CAMBERWELL CHURCH STREET - GROVE LANE","SITE_TYPE_DESC":"CCTV Streets System Camera (TV)","EASTING":532717,"NORTHING":176717}},{"type":"Feature","id":61,"geometry":{"type":"Point","coordinates":[-0.092222402638306333,51.474228922930266]},"properties":{"OBJECTID":61,"FULL_ID":"08/014338","SITE_TYPE":"TV","LOCATION":"0000104338 - CAMBERWELL CHURCH STREET BY CAMBERWELL GREEN","SITE_TYPE_DESC":"CCTV Streets System Camera (TV)","EASTING":532592,"NORTHING":176755}},{"type":"Feature","id":62,"geometry":{"type":"Point","coordinates":[-0.11760677016520289,51.500879967306155]},"properties":{"OBJECTID":62,"FULL_ID":"09/014502","SITE_TYPE":"TV","LOCATION":"0000104502 - A23 WESTMINSTER BRIDGE BY A3200 YORK ROAD","SITE_TYPE_DESC":"CCTV Streets System Camera (TV)","EASTING":530753,"NORTHING":179673}},{"type":"Feature","id":63,"geometry":{"type":"Point","coordinates":[-0.11064007714054074,51.481199771089251]},"properties":{"OBJECTID":63,"FULL_ID":"09/014503","SITE_TYPE":"TV","LOCATION":"0000104503 - BRIXTON ROAD BY CAMBERWELL NEW ROADSOUTH","SITE_TYPE_DESC":"CCTV Streets System Camera (TV)","EASTING":531293,"NORTHING":177497}},{"type":"Feature","id":64,"geometry":{"type":"Point","coordinates":[-0.11221350878097384,51.478320474575845]},"properties":{"OBJECTID":64,"FULL_ID":"09/014505","SITE_TYPE":"TV","LOCATION":"0000104505 - BRIXTON ROAD BY ISLAND PLACESOUTH","SITE_TYPE_DESC":"CCTV Streets System Camera (TV)","EASTING":531192,"NORTHING":177174}},{"type":"Feature","id":65,"geometry":{"type":"Point","coordinates":[-0.11561839035947666,51.461387966987836]},"properties":{"OBJECTID":65,"FULL_ID":"09/014506","SITE_TYPE":"TV","LOCATION":"0000104506 - ACRE LANE  BY COLDHARBOUR LANE","SITE_TYPE_DESC":"CCTV Streets System Camera (TV)","EASTING":531004,"NORTHING":175285}},{"type":"Feature","id":66,"geometry":{"type":"Point","coordinates":[-0.11344226926680789,51.465984249534763]},"properties":{"OBJECTID":66,"FULL_ID":"09/014507","SITE_TYPE":"TV","LOCATION":"0000104507 - A23 BRIXTON ROAD - STOCKWELL PARK WALK","SITE_TYPE_DESC":"CCTV Streets System Camera (TV)","EASTING":531142,"NORTHING":175800}},{"type":"Feature","id":67,"geometry":{"type":"Point","coordinates":[-0.11829492350585961,51.457213346851489]},"properties":{"OBJECTID":67,"FULL_ID":"09/014509","SITE_TYPE":"TV","LOCATION":"0000104509 - A23 BRIXTON HILL BY HAYTER ROAD","SITE_TYPE_DESC":"CCTV Streets System Camera (TV)","EASTING":530830,"NORTHING":174816}},{"type":"Feature","id":68,"geometry":{"type":"Point","coordinates":[-0.11939381777308643,51.455342491777046]},"properties":{"OBJECTID":68,"FULL_ID":"09/014510","SITE_TYPE":"TV","LOCATION":"0000104510 - A23 BRIXTON HILL - LAMBERT ROAD","SITE_TYPE_DESC":"CCTV Streets System Camera (TV)","EASTING":530759,"NORTHING":174606}},{"type":"Feature","id":69,"geometry":{"type":"Point","coordinates":[-0.12150096690366269,51.451698222293217]},"properties":{"OBJECTID":69,"FULL_ID":"09/014511","SITE_TYPE":"TV","LOCATION":"0000104511 - A23 BRIXTON HILL BY ELM PARK","SITE_TYPE_DESC":"CCTV Streets System Camera (TV)","EASTING":530623,"NORTHING":174197}},{"type":"Feature","id":70,"geometry":{"type":"Point","coordinates":[-0.12419991458217063,51.446246843923156]},"properties":{"OBJECTID":70,"FULL_ID":"09/014512","SITE_TYPE":"TV","LOCATION":"0000104512 - A23 BRIXTON HILL BY MOORISH ROAD","SITE_TYPE_DESC":"CCTV Streets System Camera (TV)","EASTING":530451,"NORTHING":173586}},{"type":"Feature","id":71,"geometry":{"type":"Point","coordinates":[-0.10060833595376026,51.477224805315544]},"properties":{"OBJECTID":71,"FULL_ID":"08/014343","SITE_TYPE":"TV","LOCATION":"0000104343 - CAMBERWELL NEW ROAD - LOTHIAN ROAD","SITE_TYPE_DESC":"CCTV Streets System Camera (TV)","EASTING":532001,"NORTHING":177073}},{"type":"Feature","id":72,"geometry":{"type":"Point","coordinates":[-0.087560929124723075,51.473442526506645]},"properties":{"OBJECTID":72,"FULL_ID":"08/014340","SITE_TYPE":"TV","LOCATION":"0000104340 - CAMBERWELL CHURCH STREET BY VICARAGE GROVE","SITE_TYPE_DESC":"CCTV Streets System Camera (TV)","EASTING":532918,"NORTHING":176676}},{"type":"Feature","id":73,"geometry":{"type":"Point","coordinates":[-0.12526870158285019,51.416273017821339]},"properties":{"OBJECTID":73,"FULL_ID":"09/014533","SITE_TYPE":"TV","LOCATION":"0000104533 - STREATHAM HIGH ROAD - HEATHDENE ROAD","SITE_TYPE_DESC":"CCTV Streets System Camera (TV)","EASTING":530462,"NORTHING":170251}},{"type":"Feature","id":74,"geometry":{"type":"Point","coordinates":[-0.11270435751636469,51.474101807370864]},"properties":{"OBJECTID":74,"FULL_ID":"09/014534","SITE_TYPE":"TV","LOCATION":"0000104534 - BRIXTON ROAD BY HILLYARD STREET","SITE_TYPE_DESC":"CCTV Streets System Camera (TV)","EASTING":531170,"NORTHING":176704}},{"type":"Feature","id":75,"geometry":{"type":"Point","coordinates":[-0.11264140453627335,51.471438946659454]},"properties":{"OBJECTID":75,"FULL_ID":"09/014535","SITE_TYPE":"TV","LOCATION":"0000104535 - BRIXTON ROAD BY INGLETON STREET","SITE_TYPE_DESC":"CCTV Streets System Camera (TV)","EASTING":531182,"NORTHING":176408}},{"type":"Feature","id":76,"geometry":{"type":"Point","coordinates":[-0.11248946079180197,51.469188317471705]},"properties":{"OBJECTID":76,"FULL_ID":"09/014536","SITE_TYPE":"TV","LOCATION":"0000104536 - BRIXTON ROAD BY WYNNE ROAD","SITE_TYPE_DESC":"CCTV Streets System Camera (TV)","EASTING":531199,"NORTHING":176158}},{"type":"Feature","id":77,"geometry":{"type":"Point","coordinates":[-0.10408633897564087,51.490248584928636]},"properties":{"OBJECTID":77,"FULL_ID":"09/014605","SITE_TYPE":"TV","LOCATION":"0000104605 - A3 KENNINGTON PARK ROAD BY PENTON PLACE","SITE_TYPE_DESC":"CCTV Streets System Camera (TV)","EASTING":531722,"NORTHING":178515}},{"type":"Feature","id":78,"geometry":{"type":"Point","coordinates":[-0.10737041685443223,51.486776481703956]},"properties":{"OBJECTID":78,"FULL_ID":"09/014606","SITE_TYPE":"TV","LOCATION":"0000104606 - A3 KENNINGTON PARK ROAD SOUTH OF  BRAGANZA STREET","SITE_TYPE_DESC":"CCTV Streets System Camera (TV)","EASTING":531504,"NORTHING":178123}},{"type":"Feature","id":79,"geometry":{"type":"Point","coordinates":[-0.10917134368619866,51.48502497257892]},"properties":{"OBJECTID":79,"FULL_ID":"09/014607","SITE_TYPE":"TV","LOCATION":"0000104607 - A3 KENNINGTON PARK ROAD NORTH OF KENNINGTON ROAD","SITE_TYPE_DESC":"CCTV Streets System Camera (TV)","EASTING":531384,"NORTHING":177925}},{"type":"Feature","id":80,"geometry":{"type":"Point","coordinates":[-0.11354967832648821,51.480841942363632]},"properties":{"OBJECTID":80,"FULL_ID":"09/014608","SITE_TYPE":"TV","LOCATION":"0000104608 - A3 CLAPHAM ROAD BY ELIAS PLACE","SITE_TYPE_DESC":"CCTV Streets System Camera (TV)","EASTING":531092,"NORTHING":177452}},{"type":"Feature","id":81,"geometry":{"type":"Point","coordinates":[-0.11448720197872105,51.479759913621997]},"properties":{"OBJECTID":81,"FULL_ID":"09/014609","SITE_TYPE":"TV","LOCATION":"0000104609 - A3 CLAPHAM ROAD BY HANDFORTH STREET","SITE_TYPE_DESC":"CCTV Streets System Camera (TV)","EASTING":531030,"NORTHING":177330}},{"type":"Feature","id":82,"geometry":{"type":"Point","coordinates":[-0.11528585370467906,51.479251177051026]},"properties":{"OBJECTID":82,"FULL_ID":"09/014610","SITE_TYPE":"TV","LOCATION":"0000104610 - A3 CLAPHAM ROAD BY CREWDSON ROAD","SITE_TYPE_DESC":"CCTV Streets System Camera (TV)","EASTING":530976,"NORTHING":177272}},{"type":"Feature","id":83,"geometry":{"type":"Point","coordinates":[-0.11666137763703359,51.47767258022246]},"properties":{"OBJECTID":83,"FULL_ID":"09/014611","SITE_TYPE":"TV","LOCATION":"0000104611 - A3 CLAPHAM ROAD BY CALDWELL STREET","SITE_TYPE_DESC":"CCTV Streets System Camera (TV)","EASTING":530885,"NORTHING":177094}},{"type":"Feature","id":84,"geometry":{"type":"Point","coordinates":[-0.12217729674293089,51.472050688183039]},"properties":{"OBJECTID":84,"FULL_ID":"09/014477","SITE_TYPE":"TV","LOCATION":"0000104477 - STOCKWELL ROAD BY CLAPHAM ROAD","SITE_TYPE_DESC":"CCTV Streets System Camera (TV)","EASTING":530518,"NORTHING":176459}},{"type":"Feature","id":85,"geometry":{"type":"Point","coordinates":[-0.12005835067417642,51.469651657992983]},"properties":{"OBJECTID":85,"FULL_ID":"09/014485","SITE_TYPE":"TV","LOCATION":"0000104485 - STOCKWELL ROAD - STOCKWELL LANE","SITE_TYPE_DESC":"CCTV Streets System Camera (TV)","EASTING":530672,"NORTHING":176196}},{"type":"Feature","id":86,"geometry":{"type":"Point","coordinates":[-0.11661570833740453,51.465837442829134]},"properties":{"OBJECTID":86,"FULL_ID":"09/014486","SITE_TYPE":"TV","LOCATION":"0000104486 - STOCKWELL ROAD - CHANTREY ROAD","SITE_TYPE_DESC":"CCTV Streets System Camera (TV)","EASTING":530922,"NORTHING":175778}},{"type":"Feature","id":87,"geometry":{"type":"Point","coordinates":[-0.1113683189170373,51.485536989079925]},"properties":{"OBJECTID":87,"FULL_ID":"09/014500","SITE_TYPE":"TV","LOCATION":"0000104500 - KENNINGTON ROAD BY KENNINGTON GREEN","SITE_TYPE_DESC":"CCTV Streets System Camera (TV)","EASTING":531230,"NORTHING":177978}},{"type":"Feature","id":88,"geometry":{"type":"Point","coordinates":[-0.11262643609328379,51.482274908085635]},"properties":{"OBJECTID":88,"FULL_ID":"09/014332","SITE_TYPE":"TV","LOCATION":"0000104332 - A202 HARLEYFORD STREET BY A3 KENNINGTON PARK ROAD","SITE_TYPE_DESC":"CCTV Streets System Camera (TV)","EASTING":531152,"NORTHING":177613}},{"type":"Feature","id":89,"geometry":{"type":"Point","coordinates":[-0.10753864875211604,51.479926755844019]},"properties":{"OBJECTID":89,"FULL_ID":"09/014333","SITE_TYPE":"TV","LOCATION":"0000104333 - CAMBERWELL NEW ROAD BY FOXLEY ROAD","SITE_TYPE_DESC":"CCTV Streets System Camera (TV)","EASTING":531512,"NORTHING":177361}},{"type":"Feature","id":90,"geometry":{"type":"Point","coordinates":[-0.10380056572026611,51.478382575416639]},"properties":{"OBJECTID":90,"FULL_ID":"09/014339","SITE_TYPE":"TV","LOCATION":"0000104339 - CAMBERWELL NEW ROAD - VASSALL ROAD","SITE_TYPE_DESC":"CCTV Streets System Camera (TV)","EASTING":531776,"NORTHING":177196}},{"type":"Feature","id":91,"geometry":{"type":"Point","coordinates":[-0.11207208477952441,51.482445838443944]},"properties":{"OBJECTID":91,"FULL_ID":"09/014345","SITE_TYPE":"TV","LOCATION":"0000104345 - KENNINGTON PARK ROAD - KENNINGTON OVAL","SITE_TYPE_DESC":"CCTV Streets System Camera (TV)","EASTING":531190,"NORTHING":177633}},{"type":"Feature","id":92,"geometry":{"type":"Point","coordinates":[-0.12415013496367452,51.48258570465687]},"properties":{"OBJECTID":92,"FULL_ID":"09/014473","SITE_TYPE":"TV","LOCATION":"0000104473 - SOUTH LAMBETH ROAD - MILES STREET","SITE_TYPE_DESC":"CCTV Streets System Camera (TV)","EASTING":530351,"NORTHING":177627}},{"type":"Feature","id":93,"geometry":{"type":"Point","coordinates":[-0.12363879765201256,51.478899524329059]},"properties":{"OBJECTID":93,"FULL_ID":"09/014474","SITE_TYPE":"TV","LOCATION":"0000104474 - SOUTH LAMBETH ROAD - TRADESCANT ROAD","SITE_TYPE_DESC":"CCTV Streets System Camera (TV)","EASTING":530397,"NORTHING":177218}},{"type":"Feature","id":94,"geometry":{"type":"Point","coordinates":[-0.12286955741358088,51.484309792596086]},"properties":{"OBJECTID":94,"FULL_ID":"09/014476","SITE_TYPE":"TV","LOCATION":"0000104476 - SOUTH LAMBETH ROAD BY PARRY STREET","SITE_TYPE_DESC":"CCTV Streets System Camera (TV)","EASTING":530435,"NORTHING":177821}},{"type":"Feature","id":95,"geometry":{"type":"Point","coordinates":[-0.092665273792309016,51.441160418966405]},"properties":{"OBJECTID":95,"FULL_ID":"08/013902","SITE_TYPE":"TV","LOCATION":"0000103902 - A205 THURLOW PARK ROAD - A2199 CROXTED ROAD","SITE_TYPE_DESC":"CCTV Streets System Camera (TV)","EASTING":532657,"NORTHING":173077}},{"type":"Feature","id":96,"geometry":{"type":"Point","coordinates":[-0.12844135022159439,51.434372231524861]},"properties":{"OBJECTID":96,"FULL_ID":"09/014530","SITE_TYPE":"TV","LOCATION":"0000104530 - STREATHAM HIGH ROAD - KINGSCOURT ROAD","SITE_TYPE_DESC":"CCTV Streets System Camera (TV)","EASTING":530190,"NORTHING":172258}},{"type":"Feature","id":97,"geometry":{"type":"Point","coordinates":[-0.12798854571405235,51.419751741688486]},"properties":{"OBJECTID":97,"FULL_ID":"09/014532","SITE_TYPE":"TV","LOCATION":"0000104532 - STREATHAM HIGH ROAD - STREATHAM COMMON SOUTH","SITE_TYPE_DESC":"CCTV Streets System Camera (TV)","EASTING":530263,"NORTHING":170633}},{"type":"Feature","id":98,"geometry":{"type":"Point","coordinates":[-0.1028149818621614,51.491379094204078]},"properties":{"OBJECTID":98,"FULL_ID":"08/014604","SITE_TYPE":"TV","LOCATION":"0000104604 - KENNINGTON PARK ROAD BY KENNINGTON LANE AND NEWINGTON BUTTS","SITE_TYPE_DESC":"CCTV Streets System Camera (TV)","EASTING":531807,"NORTHING":178643}},{"type":"Feature","id":99,"geometry":{"type":"Point","coordinates":[-0.10630039318220978,51.440958914233605]},"properties":{"OBJECTID":99,"FULL_ID":"09/013758","SITE_TYPE":"TV","LOCATION":"0000103758 - A205 TULSE HILL / THURLOW PARK ROAD / NORTHWOOD ROAD","SITE_TYPE_DESC":"CCTV Streets System Camera (TV)","EASTING":531710,"NORTHING":173030}},{"type":"Feature","id":100,"geometry":{"type":"Point","coordinates":[-0.12426805643303787,51.444934982962423]},"properties":{"OBJECTID":100,"FULL_ID":"09/013759","SITE_TYPE":"TV","LOCATION":"0000103759 - CHRISTCHURCH ROAD BY STREATHAM HILL","SITE_TYPE_DESC":"CCTV Streets System Camera (TV)","EASTING":530450,"NORTHING":173440}},{"type":"Feature","id":101,"geometry":{"type":"Point","coordinates":[-0.12417182757653991,51.445176248652466]},"properties":{"OBJECTID":101,"FULL_ID":"09/013762","SITE_TYPE":"TV","LOCATION":"0000103762 - A205 CHRISTCHURCH ROAD - A23 BRIXTON HILL","SITE_TYPE_DESC":"CCTV Streets System Camera (TV)","EASTING":530456,"NORTHING":173467}},{"type":"Feature","id":102,"geometry":{"type":"Point","coordinates":[-0.13250731315067646,51.447917304482985]},"properties":{"OBJECTID":102,"FULL_ID":"09/013770","SITE_TYPE":"TV","LOCATION":"0000103770 - A205 POYNDERS ROAD - KINGS AVENUE","SITE_TYPE_DESC":"CCTV Streets System Camera (TV)","EASTING":529869,"NORTHING":173757}},{"type":"Feature","id":103,"geometry":{"type":"Point","coordinates":[-0.1064208638532072,51.440133519007055]},"properties":{"OBJECTID":103,"FULL_ID":"09/013778","SITE_TYPE":"TV","LOCATION":"0000103778 - A205 CHRISTCHURCH ROAD / NORWOOD ROAD","SITE_TYPE_DESC":"CCTV Streets System Camera (TV)","EASTING":531704,"NORTHING":172938}},{"type":"Feature","id":104,"geometry":{"type":"Point","coordinates":[-0.093053045116065519,51.471229844926469]},"properties":{"OBJECTID":104,"FULL_ID":"09/013856","SITE_TYPE":"TV","LOCATION":"0000103856 - DENMARK HILL BY LOVE WALK","SITE_TYPE_DESC":"CCTV Streets System Camera (TV)","EASTING":532543,"NORTHING":176420}},{"type":"Feature","id":105,"geometry":{"type":"Point","coordinates":[-0.09086389701518692,51.467102470376375]},"properties":{"OBJECTID":105,"FULL_ID":"09/013858","SITE_TYPE":"TV","LOCATION":"0000103858 - DENMARK HILL BY CHAMPION PARK","SITE_TYPE_DESC":"CCTV Streets System Camera (TV)","EASTING":532707,"NORTHING":175965}},{"type":"Feature","id":106,"geometry":{"type":"Point","coordinates":[-0.14785661714929677,51.45199176017227]},"properties":{"OBJECTID":106,"FULL_ID":"10/014667","SITE_TYPE":"TV","LOCATION":"0000104667 - BALHAM HILL - HAZELBOURNE ROAD","SITE_TYPE_DESC":"CCTV Streets System Camera (TV)","EASTING":528791,"NORTHING":174183}},{"type":"Feature","id":107,"geometry":{"type":"Point","coordinates":[-0.13306707586492764,51.483249573967122]},"properties":{"OBJECTID":107,"FULL_ID":"10/014277","SITE_TYPE":"TV","LOCATION":"0000104277 - A3205 NINE ELMS LANE BY PONTON ROAD","SITE_TYPE_DESC":"CCTV Streets System Camera (TV)","EASTING":529730,"NORTHING":177685}},{"type":"Feature","id":108,"geometry":{"type":"Point","coordinates":[-0.14941902126281661,51.446809626205457]},"properties":{"OBJECTID":108,"FULL_ID":"10/014659","SITE_TYPE":"TV","LOCATION":"0000104659 - A24 BALHAM HIGH ROAD BY CAISTOR ROAD","SITE_TYPE_DESC":"CCTV Streets System Camera (TV)","EASTING":528697,"NORTHING":173604}},{"type":"Feature","id":109,"geometry":{"type":"Point","coordinates":[-0.14788810821280493,51.449078605540848]},"properties":{"OBJECTID":109,"FULL_ID":"10/014660","SITE_TYPE":"TV","LOCATION":"0000104660 - BALHAM HILL BY YUKON ROAD","SITE_TYPE_DESC":"CCTV Streets System Camera (TV)","EASTING":528797,"NORTHING":173859}},{"type":"Feature","id":110,"geometry":{"type":"Point","coordinates":[-0.15177338043634858,51.444814401512666]},"properties":{"OBJECTID":110,"FULL_ID":"10/014661","SITE_TYPE":"TV","LOCATION":"0000104661 - A24 BALHAM HIGH ROAD BY RAMSDEN ROAD","SITE_TYPE_DESC":"CCTV Streets System Camera (TV)","EASTING":528539,"NORTHING":173378}},{"type":"Feature","id":111,"geometry":{"type":"Point","coordinates":[-0.12683004745044912,51.484319164020413]},"properties":{"OBJECTID":111,"FULL_ID":"10/014275","SITE_TYPE":"TV","LOCATION":"0000104275 - A3036 WANDSWORTH RD - A3205 PARRY ST - A3205 NINE ELMS LANE","SITE_TYPE_DESC":"CCTV Streets System Camera (TV)","EASTING":530160,"NORTHING":177815}},{"type":"Feature","id":112,"geometry":{"type":"Point","coordinates":[-0.12856916357433723,51.484760594355777]},"properties":{"OBJECTID":112,"FULL_ID":"10/014276","SITE_TYPE":"TV","LOCATION":"0000104276 - NINE ELMS LANE BY WANDSWORTH ROAD","SITE_TYPE_DESC":"CCTV Streets System Camera (TV)","EASTING":530038,"NORTHING":177861}},{"type":"Feature","id":113,"geometry":{"type":"Point","coordinates":[-0.12271941967604742,51.410746621603323]},"properties":{"OBJECTID":113,"FULL_ID":"20/014541","SITE_TYPE":"TV","LOCATION":"0000104541 - A23 LONDON ROAD - NORBURY CRESCENT","SITE_TYPE_DESC":"CCTV Streets System Camera (TV)","EASTING":530655,"NORTHING":169641}},{"type":"Feature","id":114,"geometry":{"type":"Point","coordinates":[-0.11122401553824234,51.513762906573938]},"properties":{"OBJECTID":114,"FULL_ID":"00/607006","SITE_TYPE":"UX","LOCATION":"A4 STRAND WESTBOUND BY B400 CHANCERY LANE (ULEZ 667A)","SITE_TYPE_DESC":"Ultra Low Emission Zone Camera (UX)","EASTING":531159,"NORTHING":181117}},{"type":"Feature","id":115,"geometry":{"type":"Point","coordinates":[-0.11092851956746649,51.513938003879886]},"properties":{"OBJECTID":115,"FULL_ID":"00/607007","SITE_TYPE":"UX","LOCATION":"A4 STRAND EASTBOUND BY B400 CHANCERY LANE (ULEZ 667B)","SITE_TYPE_DESC":"Ultra Low Emission Zone Camera (UX)","EASTING":531179,"NORTHING":181137}},{"type":"Feature","id":116,"geometry":{"type":"Point","coordinates":[-0.10961003964765249,51.514105612962297]},"properties":{"OBJECTID":116,"FULL_ID":"00/450145","SITE_TYPE":"TP","LOCATION":"0004500145 - FLEET STREET BY FETTER LANE","SITE_TYPE_DESC":"CCTV Police Camera (TP)","EASTING":531270,"NORTHING":181158}},{"type":"Feature","id":117,"geometry":{"type":"Point","coordinates":[-0.1079739397311358,51.514286070633503]},"properties":{"OBJECTID":117,"FULL_ID":"00/450153","SITE_TYPE":"TP","LOCATION":"0004500153 - FLEET STREET BY BOULVERIE STREET","SITE_TYPE_DESC":"CCTV Police Camera (TP)","EASTING":531383,"NORTHING":181181}},{"type":"Feature","id":118,"geometry":{"type":"Point","coordinates":[-0.10237830842496595,51.51090432793935]},"properties":{"OBJECTID":118,"FULL_ID":"00/450031","SITE_TYPE":"TP","LOCATION":"0004500031 - BLACKFRIARS UNDER PASS BY PUDDLE DOCK            CITY OF LONDON CAMERA","SITE_TYPE_DESC":"CCTV Police Camera (TP)","EASTING":531781,"NORTHING":180815}},{"type":"Feature","id":119,"geometry":{"type":"Point","coordinates":[-0.10455933872632933,51.510786712623307]},"properties":{"OBJECTID":119,"FULL_ID":"00/450033","SITE_TYPE":"TP","LOCATION":"0004500033 - BLACKFRIARS BRIDGE, NORTH, UP STREAM            CITY OF LONDON CAMERA","SITE_TYPE_DESC":"CCTV Police Camera (TP)","EASTING":531630,"NORTHING":180798}},{"type":"Feature","id":120,"geometry":{"type":"Point","coordinates":[-0.10363201973337006,51.510906616850512]},"properties":{"OBJECTID":120,"FULL_ID":"00/450035","SITE_TYPE":"TP","LOCATION":"0004500035 - BLACKFRIARS BRIDGE BY BLACKFRIARS UNDERPASS            CITY OF LONDON CAMERA","SITE_TYPE_DESC":"CCTV Police Camera (TP)","EASTING":531694,"NORTHING":180813}},{"type":"Feature","id":121,"geometry":{"type":"Point","coordinates":[-0.10590179446373746,51.508650128655859]},"properties":{"OBJECTID":121,"FULL_ID":"00/450036","SITE_TYPE":"TP","LOCATION":"0004500036 - RIVER WALK BY MARIGOLD ALLEY     CITY OF LONDON CAMERA","SITE_TYPE_DESC":"CCTV Police Camera (TP)","EASTING":531543,"NORTHING":180558}},{"type":"Feature","id":122,"geometry":{"type":"Point","coordinates":[-0.10799431285578488,51.511013028525873]},"properties":{"OBJECTID":122,"FULL_ID":"00/450100","SITE_TYPE":"TP","LOCATION":"0004500100 - VICTORIA EMBANKMENT BY TEMPLE AVENUE","SITE_TYPE_DESC":"CCTV Police Camera (TP)","EASTING":531391,"NORTHING":180817}},{"type":"Feature","id":123,"geometry":{"type":"Point","coordinates":[-0.093233971287252762,51.472761567825636]},"properties":{"OBJECTID":123,"FULL_ID":"08/083855","SITE_TYPE":"TV","LOCATION":"O.O.S FROM 26/06/2014    DENMARK HILL BY ORPHEUS STREET","SITE_TYPE_DESC":"CCTV Streets System Camera (TV)","EASTING":532526,"NORTHING":176590}},{"type":"Feature","id":124,"geometry":{"type":"Point","coordinates":[-0.089512819435340743,51.46773693154374]},"properties":{"OBJECTID":124,"FULL_ID":"08/083900","SITE_TYPE":"TV","LOCATION":"O.O.S FROM 26/06/2014    CHAMPION PARK BY WINDSOR WALK","SITE_TYPE_DESC":"CCTV Streets System Camera (TV)","EASTING":532799,"NORTHING":176038}},{"type":"Feature","id":125,"geometry":{"type":"Point","coordinates":[-0.12738139001859855,51.500388962100217]},"properties":{"OBJECTID":125,"FULL_ID":"01/607712","SITE_TYPE":"UX","LOCATION":"PARLIAMENT SQUARE BY BROAD SANCTUARY","SITE_TYPE_DESC":"Ultra Low Emission Zone Camera (UX)","EASTING":530076,"NORTHING":179601}},{"type":"Feature","id":126,"geometry":{"type":"Point","coordinates":[-0.12634452018993014,51.504940712936694]},"properties":{"OBJECTID":126,"FULL_ID":"01/607713","SITE_TYPE":"UX","LOCATION":"A3212 WHITEHALL BY HORSEGUARDS AVENUE","SITE_TYPE_DESC":"Ultra Low Emission Zone Camera (UX)","EASTING":530135,"NORTHING":180109}},{"type":"Feature","id":127,"geometry":{"type":"Point","coordinates":[-0.12655276160751852,51.504782170087921]},"properties":{"OBJECTID":127,"FULL_ID":"01/607714","SITE_TYPE":"UX","LOCATION":"A3212 WHITEHALL BY HORSEGUARDS AVENUE","SITE_TYPE_DESC":"Ultra Low Emission Zone Camera (UX)","EASTING":530121,"NORTHING":180091}},{"type":"Feature","id":128,"geometry":{"type":"Point","coordinates":[-0.12927904733383902,51.49697503087387]},"properties":{"OBJECTID":128,"FULL_ID":"01/607717","SITE_TYPE":"UX","LOCATION":"MARSHAM STREET BY GREAT PETER STREET","SITE_TYPE_DESC":"Ultra Low Emission Zone Camera (UX)","EASTING":529954,"NORTHING":179218}},{"type":"Feature","id":129,"geometry":{"type":"Point","coordinates":[-0.12944220759633246,51.496860727778802]},"properties":{"OBJECTID":129,"FULL_ID":"01/607718","SITE_TYPE":"UX","LOCATION":"MARSHAM STREET BY GREAT PETER STREET","SITE_TYPE_DESC":"Ultra Low Emission Zone Camera (UX)","EASTING":529943,"NORTHING":179205}},{"type":"Feature","id":130,"geometry":{"type":"Point","coordinates":[-0.12444551965246721,51.501007512959141]},"properties":{"OBJECTID":130,"FULL_ID":"01/604631","SITE_TYPE":"UX","LOCATION":"BRIDGE STREET BY EMBANKMENT (ULEZ 4631)","SITE_TYPE_DESC":"Ultra Low Emission Zone Camera (UX)","EASTING":530278,"NORTHING":179675}},{"type":"Feature","id":131,"geometry":{"type":"Point","coordinates":[-0.11922049926830676,51.511373413128005]},"properties":{"OBJECTID":131,"FULL_ID":"01/607719","SITE_TYPE":"UX","LOCATION":"A4 STRAND BY WELLINGTON STREET BY LANCASTER PLACE","SITE_TYPE_DESC":"Ultra Low Emission Zone Camera (UX)","EASTING":530611,"NORTHING":180837}},{"type":"Feature","id":132,"geometry":{"type":"Point","coordinates":[-0.12156590427522151,51.510412801032125]},"properties":{"OBJECTID":132,"FULL_ID":"01/607690","SITE_TYPE":"UX","LOCATION":"A4 STRAND CAMERA A BY SOUTHAMPTON STREET (ULEZ 825A)","SITE_TYPE_DESC":"Ultra Low Emission Zone Camera (UX)","EASTING":530451,"NORTHING":180726}},{"type":"Feature","id":133,"geometry":{"type":"Point","coordinates":[-0.12127046843859282,51.510587924444856]},"properties":{"OBJECTID":133,"FULL_ID":"01/607691","SITE_TYPE":"UX","LOCATION":"A4 STRAND CAMERA B BY SOUTHAMPTON STREET (ULEZ 825B)","SITE_TYPE_DESC":"Ultra Low Emission Zone Camera (UX)","EASTING":530471,"NORTHING":180746}},{"type":"Feature","id":134,"geometry":{"type":"Point","coordinates":[-0.12127046843859282,51.510587924444856]},"properties":{"OBJECTID":134,"FULL_ID":"01/607692","SITE_TYPE":"UX","LOCATION":"A4 STRAND BY  EXETER STREET  (ULEZ 825C)","SITE_TYPE_DESC":"Ultra Low Emission Zone Camera (UX)","EASTING":530471,"NORTHING":180746}},{"type":"Feature","id":135,"geometry":{"type":"Point","coordinates":[-0.1276172981789086,51.500257837548517]},"properties":{"OBJECTID":135,"FULL_ID":"01/607699","SITE_TYPE":"UX","LOCATION":"A302 BROAD SANCTUARY BY PARLIAMENT SQUARE (ULEZ 811)","SITE_TYPE_DESC":"Ultra Low Emission Zone Camera (UX)","EASTING":530060,"NORTHING":179586}},{"type":"Feature","id":136,"geometry":{"type":"Point","coordinates":[-0.1265826683122272,51.504755669573434]},"properties":{"OBJECTID":136,"FULL_ID":"01/607700","SITE_TYPE":"UX","LOCATION":"WHITEHALL CAMERA A BY HORSE GUARDS AVENUE (ULEZ 853A)","SITE_TYPE_DESC":"Ultra Low Emission Zone Camera (UX)","EASTING":530119,"NORTHING":180088}},{"type":"Feature","id":137,"geometry":{"type":"Point","coordinates":[-0.1262872881217193,51.504930805935118]},"properties":{"OBJECTID":137,"FULL_ID":"01/607701","SITE_TYPE":"UX","LOCATION":"WHITEHALL CAMERA B BY HORSE GUARDS AVENUE (ULEZ 853B)","SITE_TYPE_DESC":"Ultra Low Emission Zone Camera (UX)","EASTING":530139,"NORTHING":180108}},{"type":"Feature","id":138,"geometry":{"type":"Point","coordinates":[-0.1170723186722596,51.459639754883852]},"properties":{"OBJECTID":138,"FULL_ID":"09/880001","SITE_TYPE":"TB","LOCATION":"0011100001 - A23 BRIXTON HILL / A23 ST MATTHEWS ROAD","SITE_TYPE_DESC":"CCTV Borough Camera (TB)","EASTING":530908,"NORTHING":175088}},{"type":"Feature","id":139,"geometry":{"type":"Point","coordinates":[-0.11613646590402851,51.459993419773028]},"properties":{"OBJECTID":139,"FULL_ID":"09/880002","SITE_TYPE":"TB","LOCATION":"0011100002 - A23 BRIXTON HILL / ST MATTHEWS GARDENS (OPP THE FRIDGE NIGHTCLUB)","SITE_TYPE_DESC":"CCTV Borough Camera (TB)","EASTING":530972,"NORTHING":175129}},{"type":"Feature","id":140,"geometry":{"type":"Point","coordinates":[-0.11608023051511382,51.461359420554913]},"properties":{"OBJECTID":140,"FULL_ID":"09/880003","SITE_TYPE":"TB","LOCATION":"0011100003 - A23 BRIXTON ROAD / A2217 ACRE LANE","SITE_TYPE_DESC":"CCTV Borough Camera (TB)","EASTING":530972,"NORTHING":175281}},{"type":"Feature","id":141,"geometry":{"type":"Point","coordinates":[-0.11417896720127411,51.461733519276372]},"properties":{"OBJECTID":141,"FULL_ID":"09/880004","SITE_TYPE":"TB","LOCATION":"0011100004 - A2217 COLDHARBOUR LANE / ELECTRIC LANE","SITE_TYPE_DESC":"CCTV Borough Camera (TB)","EASTING":531103,"NORTHING":175326}},{"type":"Feature","id":142,"geometry":{"type":"Point","coordinates":[-0.11126921849936536,51.461776591643385]},"properties":{"OBJECTID":142,"FULL_ID":"09/880005","SITE_TYPE":"TB","LOCATION":"0011100005 - A2217 COLDHARBOUR LANE / B223 ATLANTIC ROAD","SITE_TYPE_DESC":"CCTV Borough Camera (TB)","EASTING":531305,"NORTHING":175336}},{"type":"Feature","id":143,"geometry":{"type":"Point","coordinates":[-0.11511222959264951,51.461793496263006]},"properties":{"OBJECTID":143,"FULL_ID":"09/880006","SITE_TYPE":"TB","LOCATION":"0011100006 - A23 BRIXTON ROAD / OPP BRIGHTON TERRACE","SITE_TYPE_DESC":"CCTV Borough Camera (TB)","EASTING":531038,"NORTHING":175331}},{"type":"Feature","id":144,"geometry":{"type":"Point","coordinates":[-0.11537885969463783,51.462310373360701]},"properties":{"OBJECTID":144,"FULL_ID":"09/880007","SITE_TYPE":"TB","LOCATION":"0011100007 - A23 BRIXTON ROAD / OPP ELECTRIC AVENUE","SITE_TYPE_DESC":"CCTV Borough Camera (TB)","EASTING":531018,"NORTHING":175388}},{"type":"Feature","id":145,"geometry":{"type":"Point","coordinates":[-0.092534523938220509,51.469162050892407]},"properties":{"OBJECTID":145,"FULL_ID":"08/880081","SITE_TYPE":"TB","LOCATION":"0011000081 - KINGS COLLEGE HOSPITAL","SITE_TYPE_DESC":"CCTV Borough Camera (TB)","EASTING":532585,"NORTHING":176191}},{"type":"Feature","id":146,"geometry":{"type":"Point","coordinates":[-0.092809029326658993,51.470866161731372]},"properties":{"OBJECTID":146,"FULL_ID":"08/880083","SITE_TYPE":"TB","LOCATION":"0011000083 - DENMARK HILL - LOVE WALK","SITE_TYPE_DESC":"CCTV Borough Camera (TB)","EASTING":532561,"NORTHING":176380}},{"type":"Feature","id":147,"geometry":{"type":"Point","coordinates":[-0.13661437951482663,51.462281144494021]},"properties":{"OBJECTID":147,"FULL_ID":"09/880067","SITE_TYPE":"TB","LOCATION":"0011100067 - A3 CLAPHAM HIGH STREET / OPP STONHOUSE STREET","SITE_TYPE_DESC":"CCTV Borough Camera (TB)","EASTING":529543,"NORTHING":175347}},{"type":"Feature","id":148,"geometry":{"type":"Point","coordinates":[-0.13775716015465841,51.462146424838025]},"properties":{"OBJECTID":148,"FULL_ID":"09/880068","SITE_TYPE":"TB","LOCATION":"0011100068 - A3 CLAPHAM HIGH STREET / VENN STREET / OPP A2217 CLAPHAM PARK ROAD","SITE_TYPE_DESC":"CCTV Borough Camera (TB)","EASTING":529464,"NORTHING":175330}},{"type":"Feature","id":149,"geometry":{"type":"Point","coordinates":[-0.13930481572682057,51.461613449348938]},"properties":{"OBJECTID":149,"FULL_ID":"09/880069","SITE_TYPE":"TB","LOCATION":"0011100069 - A3 CLAPHAM HIGH STREET / B224 THE PAVEMENT","SITE_TYPE_DESC":"CCTV Borough Camera (TB)","EASTING":529358,"NORTHING":175268}},{"type":"Feature","id":150,"geometry":{"type":"Point","coordinates":[-0.14061102580545548,51.462416534000063]},"properties":{"OBJECTID":150,"FULL_ID":"09/880070","SITE_TYPE":"TB","LOCATION":"0011100070 - B224 THE PAVEMENT / B224 OLD TOWN","SITE_TYPE_DESC":"CCTV Borough Camera (TB)","EASTING":529265,"NORTHING":175355}},{"type":"Feature","id":151,"geometry":{"type":"Point","coordinates":[-0.14126068172392281,51.464144435379708]},"properties":{"OBJECTID":151,"FULL_ID":"09/880071","SITE_TYPE":"TB","LOCATION":"0011100071 - B303 OLD TOWN / B303 CLAPHAM COMMON NORTH SIDE","SITE_TYPE_DESC":"CCTV Borough Camera (TB)","EASTING":529215,"NORTHING":175546}},{"type":"Feature","id":152,"geometry":{"type":"Point","coordinates":[-0.14206022282057937,51.463599561561537]},"properties":{"OBJECTID":152,"FULL_ID":"09/880072","SITE_TYPE":"TB","LOCATION":"0011100072 - B303 CLAPHAM COMMON NORTHSIDE / ORLANDO ROAD","SITE_TYPE_DESC":"CCTV Borough Camera (TB)","EASTING":529161,"NORTHING":175484}},{"type":"Feature","id":153,"geometry":{"type":"Point","coordinates":[-0.14181005765594765,51.459476951894857]},"properties":{"OBJECTID":153,"FULL_ID":"09/880073","SITE_TYPE":"TB","LOCATION":"0011100073 - A3 CLAPHAM COMMON SOUTH SIDE / ROOKERY ROAD","SITE_TYPE_DESC":"CCTV Borough Camera (TB)","EASTING":529190,"NORTHING":175026}},{"type":"Feature","id":154,"geometry":{"type":"Point","coordinates":[-0.13879479418474983,51.461056800803796]},"properties":{"OBJECTID":154,"FULL_ID":"09/880074","SITE_TYPE":"TB","LOCATION":"0011100074 - A3 CLAPHAM COMMON SOUTH SIDE / OPP A3 LONG ROAD","SITE_TYPE_DESC":"CCTV Borough Camera (TB)","EASTING":529395,"NORTHING":175207}},{"type":"Feature","id":155,"geometry":{"type":"Point","coordinates":[-0.1390898307376823,51.460881630224733]},"properties":{"OBJECTID":155,"FULL_ID":"09/880075","SITE_TYPE":"TB","LOCATION":"0011100075 - A3 CLAPHAM COMMON SOUTH SIDE / CRESCENT GROVE","SITE_TYPE_DESC":"CCTV Borough Camera (TB)","EASTING":529375,"NORTHING":175187}},{"type":"Feature","id":156,"geometry":{"type":"Point","coordinates":[-0.12686507763214308,51.447584443188049]},"properties":{"OBJECTID":156,"FULL_ID":"09/880076","SITE_TYPE":"TB","LOCATION":"0011100076 - NEW PARK ROAD / OPP KINGSWOOD ROAD","SITE_TYPE_DESC":"CCTV Borough Camera (TB)","EASTING":530262,"NORTHING":173730}},{"type":"Feature","id":157,"geometry":{"type":"Point","coordinates":[-0.1285417854332995,51.447053679625135]},"properties":{"OBJECTID":157,"FULL_ID":"09/880077","SITE_TYPE":"TB","LOCATION":"0011100077 - A205 STREATHAM PLACE / NEW PARK ROAD","SITE_TYPE_DESC":"CCTV Borough Camera (TB)","EASTING":530147,"NORTHING":173668}},{"type":"Feature","id":158,"geometry":{"type":"Point","coordinates":[-0.12927924639386359,51.45964636358849]},"properties":{"OBJECTID":158,"FULL_ID":"09/607026","SITE_TYPE":"UX","LOCATION":"B221 BEDFORD ROAD BY A2217 CLAPHAM PARK ROAD (ULEZ 571A)","SITE_TYPE_DESC":"Ultra Low Emission Zone Camera (UX)","EASTING":530060,"NORTHING":175067}},{"type":"Feature","id":159,"geometry":{"type":"Point","coordinates":[-0.12898418213458188,51.459821508664746]},"properties":{"OBJECTID":159,"FULL_ID":"09/607027","SITE_TYPE":"UX","LOCATION":"A2217 CLAPHAM PARK ROAD EASTBOUND BY B221 BEDFORD ROAD (ULEZ 571B)","SITE_TYPE_DESC":"Ultra Low Emission Zone Camera (UX)","EASTING":530080,"NORTHING":175087}},