{"type":"FeatureCollection","features":[{"type":"Feature","id":84,"geometry":{"type":"Point","coordinates":[-0.12865595042005237,51.455526716592082]},"properties":{"OBJECTID":84,"ESTABLISHMENT_NAME":"Harris Academy Clapham Sixth Form","TYPE":"Free School","TYPE_GROUP":"Academy","PHASE":"16 plus","AGE_GROUP__LOW":16,"AGE_GROUP__HIGH":19,"ADDRESS":"73 King's Avenue","POSTCODE":"SW4 8DX","UPRN":10094961069,"EASTING":530115,"NORTHING":174610}},{"type":"Feature","id":85,"geometry":{"type":"Point","coordinates":[-0.14314907557977172,51.470118506637839]},"properties":{"OBJECTID":85,"ESTABLISHMENT_NAME":"Heathbrook Primary School","TYPE":"Community","TYPE_GROUP":"Maintained","PHASE":"Primary","AGE_GROUP__LOW":3,"AGE_GROUP__HIGH":11,"ADDRESS":"St Rule Street","POSTCODE":"SW8 3EH","UPRN":100023384661,"EASTING":529067,"NORTHING":176207}},{"type":"Feature","id":86,"geometry":{"type":"Point","coordinates":[-0.14278209593871,51.44474423483107]},"properties":{"OBJECTID":86,"ESTABLISHMENT_NAME":"Henry Cavendish Primary School","TYPE":"Community","TYPE_GROUP":"Maintained","PHASE":"Primary","AGE_GROUP__LOW":3,"AGE_GROUP__HIGH":11,"ADDRESS":"Hydethorpe Rd","POSTCODE":"SW12 0JA","UPRN":200000467195,"EASTING":529164,"NORTHING":173386}},{"type":"Feature","id":87,"geometry":{"type":"Point","coordinates":[-0.11186344747029164,51.484708638642132]},"properties":{"OBJECTID":87,"ESTABLISHMENT_NAME":"Henry Fawcett Primary School","TYPE":"Community","TYPE_GROUP":"Maintained","PHASE":"Primary","AGE_GROUP__LOW":3,"AGE_GROUP__HIGH":11,"ADDRESS":"Bowling Green Street\n","POSTCODE":"SE11 5BZ","UPRN":200000459612,"EASTING":531198,"NORTHING":177885}},{"type":"Feature","id":88,"geometry":{"type":"Point","coordinates":[-0.12586658421587754,51.478656376835417]},"properties":{"OBJECTID":88,"ESTABLISHMENT_NAME":"Herbert Morrison Primary School","TYPE":"Community","TYPE_GROUP":"Maintained","PHASE":"Primary","AGE_GROUP__LOW":3,"AGE_GROUP__HIGH":11,"ADDRESS":"Hartington Rd","POSTCODE":"SW8 2HP","UPRN":200000465708,"EASTING":530243,"NORTHING":177187}},{"type":"Feature","id":89,"geometry":{"type":"Point","coordinates":[-0.10064187067464947,51.461505922941051]},"properties":{"OBJECTID":89,"ESTABLISHMENT_NAME":"Heron Academy (formerly The Michael Tippett School)","TYPE":"Academy","TYPE_GROUP":"Academy","PHASE":"Special","AGE_GROUP__LOW":11,"AGE_GROUP__HIGH":19,"ADDRESS":"Heron Road","POSTCODE":"SE24 OHZ","UPRN":100023257916,"EASTING":532044,"NORTHING":175325}},{"type":"Feature","id":90,"geometry":{"type":"Point","coordinates":[-0.10730257302602145,51.461964399243776]},"properties":{"OBJECTID":90,"ESTABLISHMENT_NAME":"Hill Mead Primary School","TYPE":"Community","TYPE_GROUP":"Maintained","PHASE":"Primary","AGE_GROUP__LOW":3,"AGE_GROUP__HIGH":11,"ADDRESS":"Hillmead Drive, Moorland Road","POSTCODE":"SW9 8UE","UPRN":200000466650,"EASTING":531580,"NORTHING":175364}},{"type":"Feature","id":91,"geometry":{"type":"Point","coordinates":[-0.11488544328717012,51.436196261982722]},"properties":{"OBJECTID":91,"ESTABLISHMENT_NAME":"Hitherfield Primary School","TYPE":"Community","TYPE_GROUP":"Maintained","PHASE":"Primary","AGE_GROUP__LOW":3,"AGE_GROUP__HIGH":11,"ADDRESS":"Leigham Vale","POSTCODE":"SW16 2JQ","UPRN":200000466729,"EASTING":531127,"NORTHING":172485}},{"type":"Feature","id":92,"geometry":{"type":"Point","coordinates":[-0.11834654444631637,51.447555877153242]},"properties":{"OBJECTID":92,"ESTABLISHMENT_NAME":"Holy Trinity Church of England Primary School","TYPE":"Voluntary Aided","TYPE_GROUP":"Maintained","PHASE":"Primary","AGE_GROUP__LOW":4,"AGE_GROUP__HIGH":11,"ADDRESS":"Upper Tulse Hill","POSTCODE":"SW2 2RL","UPRN":200000485274,"EASTING":530854,"NORTHING":173742}},{"type":"Feature","id":93,"geometry":{"type":"Point","coordinates":[-0.13151467954155399,51.419340399042213]},"properties":{"OBJECTID":93,"ESTABLISHMENT_NAME":"Immanuel and St Andrew Church of England Primary School","TYPE":"Voluntary Aided","TYPE_GROUP":"Maintained","PHASE":"Primary","AGE_GROUP__LOW":3,"AGE_GROUP__HIGH":11,"ADDRESS":"Buckleigh Road","POSTCODE":"SW16 5SL","UPRN":200000456798,"EASTING":530019,"NORTHING":170581}},{"type":"Feature","id":94,"geometry":{"type":"Point","coordinates":[-0.13002058229528807,51.455242742863142]},"properties":{"OBJECTID":94,"ESTABLISHMENT_NAME":"Iqra Primary School","TYPE":"Voluntary Aided","TYPE_GROUP":"Maintained","PHASE":"Primary","AGE_GROUP__LOW":3,"AGE_GROUP__HIGH":11,"ADDRESS":"127 Park Hill","POSTCODE":"SW4 9PA","UPRN":200000476089,"EASTING":530021,"NORTHING":174576}},{"type":"Feature","id":95,"geometry":{"type":"Point","coordinates":[-0.10133639475378617,51.460033358239265]},"properties":{"OBJECTID":95,"ESTABLISHMENT_NAME":"Jessop Primary School","TYPE":"Community","TYPE_GROUP":"Maintained","PHASE":"Primary","AGE_GROUP__LOW":2,"AGE_GROUP__HIGH":11,"ADDRESS":"Lowden Rd , Herne Hill","POSTCODE":"SE24 0BJ","UPRN":200000524753,"EASTING":532000,"NORTHING":175160}},{"type":"Feature","id":96,"geometry":{"type":"Point","coordinates":[-0.11385781476715227,51.452411788500413]},"properties":{"OBJECTID":96,"ESTABLISHMENT_NAME":"Jubilee Primary School","TYPE":"Community","TYPE_GROUP":"Maintained","PHASE":"Primary","AGE_GROUP__LOW":3,"AGE_GROUP__HIGH":11,"ADDRESS":"Tulse Hill","POSTCODE":"SW2 2JE","UPRN":10000445340,"EASTING":531152,"NORTHING":174290}},{"type":"Feature","id":97,"geometry":{"type":"Point","coordinates":[-0.11572184362801494,51.428927808602317]},"properties":{"OBJECTID":97,"ESTABLISHMENT_NAME":"Julian's School","TYPE":"Foundation","TYPE_GROUP":"Maintained","PHASE":"Primary","AGE_GROUP__LOW":3,"AGE_GROUP__HIGH":11,"ADDRESS":"226 Leigham Court Road / 16 Wolfington Road","POSTCODE":"SW16 2RB / SE27 0JF","UPRN":100023318258,"EASTING":531089.65000000002,"NORTHING":171675.25}},{"type":"Feature","id":98,"geometry":{"type":"Point","coordinates":[-0.12938912964248855,51.457309999140207]},"properties":{"OBJECTID":98,"ESTABLISHMENT_NAME":"Kings Avenue School","TYPE":"Community","TYPE_GROUP":"Maintained","PHASE":"Primary","AGE_GROUP__LOW":3,"AGE_GROUP__HIGH":11,"ADDRESS":"Kings Avenue","POSTCODE":"SW4 8BQ","UPRN":200000505757,"EASTING":530059,"NORTHING":174807}},{"type":"Feature","id":99,"geometry":{"type":"Point","coordinates":[-0.12987265219685598,51.457101888344916]},"properties":{"OBJECTID":99,"ESTABLISHMENT_NAME":"King's College London Maths School","TYPE":"Free School","TYPE_GROUP":"Academy","PHASE":"16 plus","AGE_GROUP__LOW":16,"AGE_GROUP__HIGH":19,"ADDRESS":"80 Kennington Road","POSTCODE":"SE11 6NJ","UPRN":100023365037,"EASTING":530026,"NORTHING":174783}},{"type":"Feature","id":100,"geometry":{"type":"Point","coordinates":[-0.096957691341557128,51.42824451820038]},"properties":{"OBJECTID":100,"ESTABLISHMENT_NAME":"Kingswood Primary School","TYPE":"Community","TYPE_GROUP":"Maintained","PHASE":"Primary","AGE_GROUP__LOW":3,"AGE_GROUP__HIGH":11,"ADDRESS":"55 Gipsy Rd","POSTCODE":"SE27 9NP ","UPRN":10090196376,"EASTING":532396,"NORTHING":171633}},{"type":"Feature","id":1,"geometry":{"type":"Point","coordinates":[-0.14475468327120661,51.447913951816744]},"properties":{"OBJECTID":1,"ESTABLISHMENT_NAME":"La Retraite Roman Catholic Girls' School","TYPE":"Voluntary Aided","TYPE_GROUP":"Maintained","PHASE":"Secondary","AGE_GROUP__LOW":11,"AGE_GROUP__HIGH":18,"ADDRESS":"Atkins Rd","POSTCODE":"SW12 0AB","UPRN":200000453941,"EASTING":529018,"NORTHING":173735}},{"type":"Feature","id":2,"geometry":{"type":"Point","coordinates":[-0.14140948655579971,51.458706223919627]},"properties":{"OBJECTID":2,"ESTABLISHMENT_NAME":"Lambeth College","TYPE":"FE College","TYPE_GROUP":"Colleges","PHASE":"16 plus","AGE_GROUP__LOW":16,"AGE_GROUP__HIGH":99,"ADDRESS":"Clapham Centre, 45 Clapham Common Southside","POSTCODE":"SW4 9BL","UPRN":100023365126,"EASTING":529220,"NORTHING":174941}},{"type":"Feature","id":3,"geometry":{"type":"Point","coordinates":[-0.11959793385071267,51.466720836354703]},"properties":{"OBJECTID":3,"ESTABLISHMENT_NAME":"Lansdowne School","TYPE":"Community","TYPE_GROUP":"Maintained","PHASE":"Special","AGE_GROUP__LOW":11,"AGE_GROUP__HIGH":18,"ADDRESS":"49 Combermere Road","POSTCODE":"SW9 9QD","UPRN":100023389621,"EASTING":530712.33999999997,"NORTHING":175870.91}},{"type":"Feature","id":4,"geometry":{"type":"Point","coordinates":[-0.12956310022376133,51.47066695732353]},"properties":{"OBJECTID":4,"ESTABLISHMENT_NAME":"Larkhall Primary Campus","TYPE":"Community","TYPE_GROUP":"Maintained","PHASE":"Primary","AGE_GROUP__LOW":2,"AGE_GROUP__HIGH":11,"ADDRESS":"Smedley St.","POSTCODE":"SW4 6PH","UPRN":200000479834,"EASTING":530009,"NORTHING":176292}},{"type":"Feature","id":5,"geometry":{"type":"Point","coordinates":[-0.11778618082335732,51.486035849750053]},"properties":{"OBJECTID":5,"ESTABLISHMENT_NAME":"Lilian Baylis Technology School","TYPE":"Community","TYPE_GROUP":"Maintained","PHASE":"Secondary","AGE_GROUP__LOW":11,"AGE_GROUP__HIGH":18,"ADDRESS":"323 Kennington Lane","POSTCODE":"SE11 5QY","UPRN":10008785986,"EASTING":530783,"NORTHING":178022}},{"type":"Feature","id":6,"geometry":{"type":"Point","coordinates":[-0.14359214140972063,51.446061019700601]},"properties":{"OBJECTID":6,"ESTABLISHMENT_NAME":"London Steiner School","TYPE":"Independent","TYPE_GROUP":"Independent","PHASE":"All-through","AGE_GROUP__LOW":3,"AGE_GROUP__HIGH":14,"ADDRESS":"9 Weir Road","POSTCODE":"SW12 0LT","UPRN":10008792161,"EASTING":529104,"NORTHING":173531}},{"type":"Feature","id":7,"geometry":{"type":"Point","coordinates":[-0.10503040039797942,51.469553587814147]},"properties":{"OBJECTID":7,"ESTABLISHMENT_NAME":"Loughborough Primary School","TYPE":"Community","TYPE_GROUP":"Maintained","PHASE":"Primary","AGE_GROUP__LOW":3,"AGE_GROUP__HIGH":11,"ADDRESS":"Minet Road","POSTCODE":"SW9 7UA","UPRN":200000472804,"EASTING":531716,"NORTHING":176212}},{"type":"Feature","id":8,"geometry":{"type":"Point","coordinates":[-0.14741342653656625,51.46365728587449]},"properties":{"OBJECTID":8,"ESTABLISHMENT_NAME":"Macaulay Church of England Primary School","TYPE":"Voluntary Aided","TYPE_GROUP":"Maintained","PHASE":"Primary","AGE_GROUP__LOW":3,"AGE_GROUP__HIGH":11,"ADDRESS":"Victoria Rise","POSTCODE":"SW4 0NU","UPRN":200000485617,"EASTING":528789,"NORTHING":175481}},{"type":"Feature","id":9,"geometry":{"type":"Point","coordinates":[-0.10995043063431512,51.497879156695667]},"properties":{"OBJECTID":9,"ESTABLISHMENT_NAME":"Morley College","TYPE":"FE College","TYPE_GROUP":"Colleges","PHASE":"19 plus","AGE_GROUP__LOW":19,"AGE_GROUP__HIGH":99,"ADDRESS":"61 Westminster Bridge Road\u00A0","POSTCODE":"SE1 7HT\u00A0","UPRN":100023225348,"EASTING":531293,"NORTHING":179353}},{"type":"Feature","id":10,"geometry":{"type":"Point","coordinates":[-0.093810037260235915,51.44131394103146]},"properties":{"OBJECTID":10,"ESTABLISHMENT_NAME":"Oakfield Preparatory School","TYPE":"Independent","TYPE_GROUP":"Independent","PHASE":"Primary","AGE_GROUP__LOW":2,"AGE_GROUP__HIGH":11,"ADDRESS":"125-128 Thurlow Park Road","POSTCODE":"SE21 8HP","UPRN":100023572941,"EASTING":532577,"NORTHING":173092}},{"type":"Feature","id":11,"geometry":{"type":"Point","coordinates":[-0.11138944641951221,51.500708074926735]},"properties":{"OBJECTID":11,"ESTABLISHMENT_NAME":"Oasis Academy Johanna","TYPE":"Academy Converter","TYPE_GROUP":"Academy","PHASE":"Primary","AGE_GROUP__LOW":3,"AGE_GROUP__HIGH":11,"ADDRESS":"Johanna St.\nLower Marsh","POSTCODE":"SE1 7RH","UPRN":100023225523,"EASTING":531185,"NORTHING":179665}},{"type":"Feature","id":12,"geometry":{"type":"Point","coordinates":[-0.11172606637346852,51.498487520359596]},"properties":{"OBJECTID":12,"ESTABLISHMENT_NAME":"Oasis Academy South Bank","TYPE":"Free School","TYPE_GROUP":"Academy","PHASE":"Secondary","AGE_GROUP__LOW":11,"AGE_GROUP__HIGH":19,"ADDRESS":"75 Westminster Bridge Road","POSTCODE":"SE1 7HS","UPRN":10091119897,"EASTING":531168.01000000001,"NORTHING":179417.47}},{"type":"Feature","id":13,"geometry":{"type":"Point","coordinates":[-0.11149109827868917,51.490583881933752]},"properties":{"OBJECTID":13,"ESTABLISHMENT_NAME":"Octavia House Schools, London","TYPE":"Independent","TYPE_GROUP":"Independent","PHASE":"Special","AGE_GROUP__LOW":5,"AGE_GROUP__HIGH":17,"ADDRESS":"214b Kennington Road","POSTCODE":"SE11 6AU","UPRN":10023851210,"EASTING":531207,"NORTHING":178539}},{"type":"Feature","id":14,"geometry":{"type":"Point","coordinates":[-0.081498970194280637,51.422272916211725]},"properties":{"OBJECTID":14,"ESTABLISHMENT_NAME":"Paxton Primary School","TYPE":"Community","TYPE_GROUP":"Maintained","PHASE":"Primary","AGE_GROUP__LOW":3,"AGE_GROUP__HIGH":11,"ADDRESS":"Woodland Road","POSTCODE":"SE19 1PA","UPRN":100023246994,"EASTING":533488,"NORTHING":170997}},{"type":"Feature","id":15,"geometry":{"type":"Point","coordinates":[-0.12000032612042298,51.4738682988514]},"properties":{"OBJECTID":15,"ESTABLISHMENT_NAME":"Platanos College","TYPE":"Academy Converter","TYPE_GROUP":"Academy","PHASE":"Secondary","AGE_GROUP__LOW":11,"AGE_GROUP__HIGH":16,"ADDRESS":"Clapham Rd","POSTCODE":"SW9 0AL","UPRN":200000524408,"EASTING":530664,"NORTHING":176665}},{"type":"Feature","id":16,"geometry":{"type":"Point","coordinates":[-0.11505544501389788,51.477502893916395]},"properties":{"OBJECTID":16,"ESTABLISHMENT_NAME":"Reay Primary School","TYPE":"Foundation","TYPE_GROUP":"Maintained","PHASE":"Primary","AGE_GROUP__LOW":3,"AGE_GROUP__HIGH":11,"ADDRESS":"Hackford Rd","POSTCODE":"SW9 0EN","UPRN":100023386255,"EASTING":530997,"NORTHING":177078}},{"type":"Feature","id":17,"geometry":{"type":"Point","coordinates":[-0.12693077740656142,51.448089090730427]},"properties":{"OBJECTID":17,"ESTABLISHMENT_NAME":"Richard Atkins Primary School","TYPE":"Community","TYPE_GROUP":"Maintained","PHASE":"Primary","AGE_GROUP__LOW":3,"AGE_GROUP__HIGH":11,"ADDRESS":"New Park Road","POSTCODE":"SW4 2JP","UPRN":200000524677,"EASTING":530256,"NORTHING":173786}},{"type":"Feature","id":18,"geometry":{"type":"Point","coordinates":[-0.098759963894343675,51.439236073911019]},"properties":{"OBJECTID":18,"ESTABLISHMENT_NAME":"Rosemead Preparatory School","TYPE":"Independent","TYPE_GROUP":"Independent","PHASE":"Primary","AGE_GROUP__LOW":3,"AGE_GROUP__HIGH":11,"ADDRESS":"70 Thurlow Park Road","POSTCODE":"SE21 8HZ","UPRN":100023572939,"EASTING":532239,"NORTHING":172852}},{"type":"Feature","id":19,"geometry":{"type":"Point","coordinates":[-0.098080177790182493,51.446248472487881]},"properties":{"OBJECTID":19,"ESTABLISHMENT_NAME":"Rosendale Primary School","TYPE":"Academy Converter","TYPE_GROUP":"Academy","PHASE":"Primary","AGE_GROUP__LOW":3,"AGE_GROUP__HIGH":11,"ADDRESS":"Rosendale Road","POSTCODE":"SE21 8LR","UPRN":10090194699,"EASTING":532266,"NORTHING":173633}},{"type":"Feature","id":20,"geometry":{"type":"Point","coordinates":[-0.10238820846953463,51.475976662663101]},"properties":{"OBJECTID":20,"ESTABLISHMENT_NAME":"Saint Gabriel's College","TYPE":"Voluntary Aided","TYPE_GROUP":"Maintained","PHASE":"Secondary","AGE_GROUP__LOW":11,"AGE_GROUP__HIGH":16,"ADDRESS":"Langton Road","POSTCODE":"SW9 6UL","UPRN":200000470196,"EASTING":531881,"NORTHING":176931}},{"type":"Feature","id":21,"geometry":{"type":"Point","coordinates":[-0.11954645514321446,51.456531993168163]},"properties":{"OBJECTID":21,"ESTABLISHMENT_NAME":"South Bank UTC","TYPE":"Academy","TYPE_GROUP":"Academy","PHASE":"Secondary","AGE_GROUP__LOW":14,"AGE_GROUP__HIGH":19,"ADDRESS":"56 Brixton Hill","POSTCODE":"SW2 1QS","UPRN":10091121722,"EASTING":530745,"NORTHING":174738}},{"type":"Feature","id":22,"geometry":{"type":"Point","coordinates":[-0.12751197578017753,51.424375404026634]},"properties":{"OBJECTID":22,"ESTABLISHMENT_NAME":"St Andrew's Catholic Primary School","TYPE":"Voluntary Aided","TYPE_GROUP":"Maintained","PHASE":"Primary","AGE_GROUP__LOW":4,"AGE_GROUP__HIGH":11,"ADDRESS":"Polworth Rd ","POSTCODE":"SW16 2ET","UPRN":200000476614,"EASTING":530283,"NORTHING":171148}},{"type":"Feature","id":23,"geometry":{"type":"Point","coordinates":[-0.12244543406559953,51.468673731612668]},"properties":{"OBJECTID":23,"ESTABLISHMENT_NAME":"St Andrew's Church of England Primary School","TYPE":"Voluntary Aided","TYPE_GROUP":"Maintained","PHASE":"Primary","AGE_GROUP__LOW":4,"AGE_GROUP__HIGH":11,"ADDRESS":"Kay Rd","POSTCODE":"SW9 9DE ","UPRN":200000467628,"EASTING":530509,"NORTHING":176083}},{"type":"Feature","id":24,"geometry":{"type":"Point","coordinates":[-0.1193300861507372,51.4856199761577]},"properties":{"OBJECTID":24,"ESTABLISHMENT_NAME":"St Anne's Catholic Primary School","TYPE":"Voluntary Aided","TYPE_GROUP":"Maintained","PHASE":"Primary","AGE_GROUP__LOW":3,"AGE_GROUP__HIGH":11,"ADDRESS":"6 Durham Street","POSTCODE":"SE11 5JA","UPRN":100023230064,"EASTING":530677,"NORTHING":177973}},{"type":"Feature","id":25,"geometry":{"type":"Point","coordinates":[-0.1355670751325774,51.444521785777034]},"properties":{"OBJECTID":25,"ESTABLISHMENT_NAME":"St Bede's Catholic Infant School","TYPE":"Voluntary Aided","TYPE_GROUP":"Maintained","PHASE":"Primary","AGE_GROUP__LOW":3,"AGE_GROUP__HIGH":7,"ADDRESS":"Thornton Rd","POSTCODE":"SW12 0LF","UPRN":200000483857,"EASTING":529666,"NORTHING":173374}},{"type":"Feature","id":26,"geometry":{"type":"Point","coordinates":[-0.14475468327120661,51.447913951816744]},"properties":{"OBJECTID":26,"ESTABLISHMENT_NAME":"St Bernadette Catholic Junior School","TYPE":"Voluntary Aided","TYPE_GROUP":"Maintained","PHASE":"Primary","AGE_GROUP__LOW":7,"AGE_GROUP__HIGH":11,"ADDRESS":"Atkins Rd","POSTCODE":"SW12 0AB","UPRN":200000453941,"EASTING":529018,"NORTHING":173735}},{"type":"Feature","id":27,"geometry":{"type":"Point","coordinates":[-0.11339557535548883,51.467116590130132]},"properties":{"OBJECTID":27,"ESTABLISHMENT_NAME":"St Helen's Catholic Primary School","TYPE":"Voluntary Aided","TYPE_GROUP":"Maintained","PHASE":"Primary","AGE_GROUP__LOW":3,"AGE_GROUP__HIGH":11,"ADDRESS":"Knowle Close","POSTCODE":"SW9 0TQ","UPRN":200000469562,"EASTING":531142,"NORTHING":175926}},{"type":"Feature","id":28,"geometry":{"type":"Point","coordinates":[-0.10369335732489152,51.478884432817821]},"properties":{"OBJECTID":28,"ESTABLISHMENT_NAME":"St John the Divine Church of England Primary School","TYPE":"Voluntary Aided","TYPE_GROUP":"Maintained","PHASE":"Primary","AGE_GROUP__LOW":3,"AGE_GROUP__HIGH":11,"ADDRESS":"Warham St.\nCamberwell New Rd","POSTCODE":"SE5 0SX","UPRN":null,"EASTING":531782,"NORTHING":177252}},{"type":"Feature","id":29,"geometry":{"type":"Point","coordinates":[-0.10868890392834017,51.468128864793627]},"properties":{"OBJECTID":29,"ESTABLISHMENT_NAME":"St John's Angell Town Church of England Primary School","TYPE":"Voluntary Aided","TYPE_GROUP":"Maintained","PHASE":"Primary","AGE_GROUP__LOW":3,"AGE_GROUP__HIGH":11,"ADDRESS":"85 Angell Road","POSTCODE":"SW9 7HH","UPRN":10093378222,"EASTING":531466,"NORTHING":176047}},{"type":"Feature","id":30,"geometry":{"type":"Point","coordinates":[-0.10501352056442677,51.454319472445292]},"properties":{"OBJECTID":30,"ESTABLISHMENT_NAME":"St Jude's Church of England Primary School","TYPE":"Voluntary Aided","TYPE_GROUP":"Maintained","PHASE":"Primary","AGE_GROUP__LOW":4,"AGE_GROUP__HIGH":11,"ADDRESS":"Regent Rd","POSTCODE":"SE24 0EL","UPRN":200000477932,"EASTING":531761,"NORTHING":174518}},{"type":"Feature","id":31,"geometry":{"type":"Point","coordinates":[-0.13527048475700185,51.427623047293217]},"properties":{"OBJECTID":31,"ESTABLISHMENT_NAME":"St Leonard's Church of England Primary School","TYPE":"Academy Converter","TYPE_GROUP":"Academy","PHASE":"Primary","AGE_GROUP__LOW":4,"AGE_GROUP__HIGH":11,"ADDRESS":"42 Mitcham Lane","POSTCODE":"SW16 6NW","UPRN":100023320542,"EASTING":529734.43000000005,"NORTHING":171495.38}},{"type":"Feature","id":32,"geometry":{"type":"Point","coordinates":[-0.099879952242997949,51.426808134812958]},"properties":{"OBJECTID":32,"ESTABLISHMENT_NAME":"St Luke's Church of England Primary School","TYPE":"Academy Converter","TYPE_GROUP":"Academy","PHASE":"Primary","AGE_GROUP__LOW":4,"AGE_GROUP__HIGH":11,"ADDRESS":"Linton Grove","POSTCODE":"SE27 0DZ","UPRN":200000471131,"EASTING":532197,"NORTHING":171468}},{"type":"Feature","id":33,"geometry":{"type":"Point","coordinates":[-0.1172847670677815,51.484570981152999]},"properties":{"OBJECTID":33,"ESTABLISHMENT_NAME":"St Mark's Church of England Primary School","TYPE":"Voluntary Aided","TYPE_GROUP":"Maintained","PHASE":"Primary","AGE_GROUP__LOW":3,"AGE_GROUP__HIGH":11,"ADDRESS":"Harleyford Rd","POSTCODE":"SE11 5SL","UPRN":200000465663,"EASTING":530822,"NORTHING":177860}},{"type":"Feature","id":34,"geometry":{"type":"Point","coordinates":[-0.10967956324199568,51.44415198205327]},"properties":{"OBJECTID":34,"ESTABLISHMENT_NAME":"St Martin in the Fields High School for Girls","TYPE":"Academy Converter","TYPE_GROUP":"Academy","PHASE":"Secondary","AGE_GROUP__LOW":11,"AGE_GROUP__HIGH":18,"ADDRESS":"155 Tulse Hill","POSTCODE":"SW2 3UP","UPRN":100023351628,"EASTING":531466,"NORTHING":173379}},{"type":"Feature","id":35,"geometry":{"type":"Point","coordinates":[-0.1382924220091023,51.45925028809701]},"properties":{"OBJECTID":35,"ESTABLISHMENT_NAME":"St Mary's Roman Catholic Primary School","TYPE":"Voluntary Aided","TYPE_GROUP":"Maintained","PHASE":"Primary","AGE_GROUP__LOW":3,"AGE_GROUP__HIGH":11,"ADDRESS":"Crescent Lane","POSTCODE":"SW4 9QJ","UPRN":200000460648,"EASTING":529435,"NORTHING":175007}},{"type":"Feature","id":36,"geometry":{"type":"Point","coordinates":[-0.097901419945450555,51.463709687635543]},"properties":{"OBJECTID":36,"ESTABLISHMENT_NAME":"St Saviour's Church of England Primary School","TYPE":"Voluntary Aided","TYPE_GROUP":"Maintained","PHASE":"Primary","AGE_GROUP__LOW":4,"AGE_GROUP__HIGH":11,"ADDRESS":"Herne Hill Rd","POSTCODE":"SE24 0AY","UPRN":200000466313,"EASTING":532228,"NORTHING":175575}},{"type":"Feature","id":37,"geometry":{"type":"Point","coordinates":[-0.12229371789289362,51.479741290433061]},"properties":{"OBJECTID":37,"ESTABLISHMENT_NAME":"St Stephen's Church of England Primary School","TYPE":"Voluntary Aided","TYPE_GROUP":"Maintained","PHASE":"Primary","AGE_GROUP__LOW":3,"AGE_GROUP__HIGH":11,"ADDRESS":"Dorset Rd","POSTCODE":"SW8 1EJ","UPRN":200000461539,"EASTING":530488,"NORTHING":177314}},{"type":"Feature","id":38,"geometry":{"type":"Point","coordinates":[-0.11803818437866404,51.466606691734569]},"properties":{"OBJECTID":38,"ESTABLISHMENT_NAME":"Stockwell Primary School","TYPE":"Community","TYPE_GROUP":"Maintained","PHASE":"Primary","AGE_GROUP__LOW":2,"AGE_GROUP__HIGH":11,"ADDRESS":"Stockwell Rd","POSTCODE":"SW9 9TG","UPRN":100023389736,"EASTING":530821,"NORTHING":175861}},{"type":"Feature","id":39,"geometry":{"type":"Point","coordinates":[-0.13811577509893119,51.43528173435147]},"properties":{"OBJECTID":39,"ESTABLISHMENT_NAME":"Streatham & Clapham High School","TYPE":"Independent","TYPE_GROUP":"Independent","PHASE":"All-through","AGE_GROUP__LOW":3,"AGE_GROUP__HIGH":19,"ADDRESS":"42 Abbotswood Road","POSTCODE":"SW16 1AW","UPRN":100023317281,"EASTING":529515,"NORTHING":172342}},{"type":"Feature","id":40,"geometry":{"type":"Point","coordinates":[-0.11558987259982667,51.44005652007192]},"properties":{"OBJECTID":40,"ESTABLISHMENT_NAME":"Streatham Wells Primary School","TYPE":"Academy","TYPE_GROUP":"Academy","PHASE":"Primary","AGE_GROUP__LOW":3,"AGE_GROUP__HIGH":11,"ADDRESS":"50 Palace Rd","POSTCODE":"SW2 3NJ","UPRN":100023352500,"EASTING":531067,"NORTHING":172913}},{"type":"Feature","id":41,"geometry":{"type":"Point","coordinates":[-0.11929627525371111,51.45841647095417]},"properties":{"OBJECTID":41,"ESTABLISHMENT_NAME":"Sudbourne Primary School","TYPE":"Community","TYPE_GROUP":"Maintained","PHASE":"Primary","AGE_GROUP__LOW":3,"AGE_GROUP__HIGH":11,"ADDRESS":"Hayter Rd","POSTCODE":"SW2 5AP","UPRN":100023354215,"EASTING":530757,"NORTHING":174948}},{"type":"Feature","id":42,"geometry":{"type":"Point","coordinates":[-0.12009753889146042,51.429094781756127]},"properties":{"OBJECTID":42,"ESTABLISHMENT_NAME":"Sunnyhill Primary School","TYPE":"Community","TYPE_GROUP":"Maintained","PHASE":"Primary","AGE_GROUP__LOW":3,"AGE_GROUP__HIGH":11,"ADDRESS":"Sunnyhill Rd","POSTCODE":"SW16 2UW","UPRN":200000522502,"EASTING":530785,"NORTHING":171686}},{"type":"Feature","id":43,"geometry":{"type":"Point","coordinates":[-0.13668761015604158,51.443154713228743]},"properties":{"OBJECTID":43,"ESTABLISHMENT_NAME":"Telferscot Primary School","TYPE":"Community","TYPE_GROUP":"Maintained","PHASE":"Primary","AGE_GROUP__LOW":3,"AGE_GROUP__HIGH":11,"ADDRESS":"Telferscot Rd","POSTCODE":"SW12 0HW","UPRN":100023572915,"EASTING":529592,"NORTHING":173220}},{"type":"Feature","id":44,"geometry":{"type":"Point","coordinates":[-0.10244899392653259,51.438756303337215]},"properties":{"OBJECTID":44,"ESTABLISHMENT_NAME":"The Elmgreen School","TYPE":"Academy Converter","TYPE_GROUP":"Academy","PHASE":"Secondary","AGE_GROUP__LOW":11,"AGE_GROUP__HIGH":19,"ADDRESS":"Elmcourt Rd","POSTCODE":"SE27 9BZ","UPRN":200000462875,"EASTING":531984,"NORTHING":172792}},{"type":"Feature","id":45,"geometry":{"type":"Point","coordinates":[-0.13993608470036123,51.457414880343961]},"properties":{"OBJECTID":45,"ESTABLISHMENT_NAME":"The Elms Academy","TYPE":"Academy Sponsor","TYPE_GROUP":"Academy","PHASE":"Secondary","AGE_GROUP__LOW":11,"AGE_GROUP__HIGH":18,"ADDRESS":"Elms Road","POSTCODE":"SW4 9ET","UPRN":10008794029,"EASTING":529326,"NORTHING":174800}},{"type":"Feature","id":46,"geometry":{"type":"Point","coordinates":[-0.12369226648935328,51.436651663902538]},"properties":{"OBJECTID":46,"ESTABLISHMENT_NAME":"The Livity School","TYPE":"Community","TYPE_GROUP":"Maintained","PHASE":"Special","AGE_GROUP__LOW":2,"AGE_GROUP__HIGH":11,"ADDRESS":"Adare Walk\nStreatham","POSTCODE":"SW16 2PW\n","UPRN":10090203456,"EASTING":530513.59999999998,"NORTHING":172519.92000000001}},{"type":"Feature","id":47,"geometry":{"type":"Point","coordinates":[-0.10827029036515279,51.506440158398078]},"properties":{"OBJECTID":47,"ESTABLISHMENT_NAME":"The London Nautical School","TYPE":"Foundation","TYPE_GROUP":"Maintained","PHASE":"Secondary","AGE_GROUP__LOW":11,"AGE_GROUP__HIGH":18,"ADDRESS":"61 Stamford Street","POSTCODE":"SE1 9NA","UPRN":100023226882,"EASTING":531385,"NORTHING":180308}},{"type":"Feature","id":48,"geometry":{"type":"Point","coordinates":[-0.11613552933281014,51.495613036339378]},"properties":{"OBJECTID":48,"ESTABLISHMENT_NAME":"The Marine Society College of the Sea","TYPE":"FE College","TYPE_GROUP":"Colleges","PHASE":"Special","AGE_GROUP__LOW":19,"AGE_GROUP__HIGH":99,"ADDRESS":null,"POSTCODE":"SE1 7JY","UPRN":10094956696,"EASTING":530870.19000000006,"NORTHING":179089.94}},{"type":"Feature","id":49,"geometry":{"type":"Point","coordinates":[-0.14100482065538916,51.446694475138393]},"properties":{"OBJECTID":49,"ESTABLISHMENT_NAME":"The Michael Tippett College","TYPE":"FE College","TYPE_GROUP":"Special post 16","PHASE":"Special","AGE_GROUP__LOW":19,"AGE_GROUP__HIGH":25,"ADDRESS":"Belthorn Crescent, Weir Road,\nBalham, ","POSTCODE":"SW12 0NS","UPRN":200000454984,"EASTING":529282,"NORTHING":173606}},{"type":"Feature","id":50,"geometry":{"type":"Point","coordinates":[-0.099642038564175972,51.423180175036556]},"properties":{"OBJECTID":50,"ESTABLISHMENT_NAME":"The Norwood School","TYPE":"Community","TYPE_GROUP":"Maintained","PHASE":"Secondary","AGE_GROUP__LOW":11,"AGE_GROUP__HIGH":19,"ADDRESS":"Crown Dale","POSTCODE":"SE19 3NY","UPRN":200000460903,"EASTING":532224,"NORTHING":171065}},{"type":"Feature","id":51,"geometry":{"type":"Point","coordinates":[-0.12255781770649173,51.445231334395331]},"properties":{"OBJECTID":51,"ESTABLISHMENT_NAME":"The Orchard School","TYPE":"Voluntary Aided","TYPE_GROUP":"Maintained","PHASE":"Primary","AGE_GROUP__LOW":4,"AGE_GROUP__HIGH":11,"ADDRESS":"Christchurch Road (entrance from Cotherstone Road)","POSTCODE":"SW2 3NE","UPRN":200000458012,"EASTING":530568,"NORTHING":173476}},{"type":"Feature","id":52,"geometry":{"type":"Point","coordinates":[-0.13549915239791702,51.445482933960427]},"properties":{"OBJECTID":52,"ESTABLISHMENT_NAME":"The White House Preparatory School & Woodentops Kindergarten","TYPE":"Independent","TYPE_GROUP":"Independent ","PHASE":"Primary","AGE_GROUP__LOW":3,"AGE_GROUP__HIGH":11,"ADDRESS":"24 Thornton Road","POSTCODE":"SW12 0LF","UPRN":10090198711,"EASTING":529668,"NORTHING":173481}},{"type":"Feature","id":53,"geometry":{"type":"Point","coordinates":[-0.1195601013702388,51.456550197749223]},"properties":{"OBJECTID":53,"ESTABLISHMENT_NAME":"Trinity Academy","TYPE":"Free School","TYPE_GROUP":"Academy","PHASE":"Secondary","AGE_GROUP__LOW":11,"AGE_GROUP__HIGH":18,"ADDRESS":"56 Brixton Hill","POSTCODE":"SW2 1QS","UPRN":10091121723,"EASTING":530744,"NORTHING":174740}},{"type":"Feature","id":54,"geometry":{"type":"Point","coordinates":[-0.097789571597769034,51.447008148727932]},"properties":{"OBJECTID":54,"ESTABLISHMENT_NAME":"Turney Primary and Secondary Special School","TYPE":"Foundation","TYPE_GROUP":"Maintained","PHASE":"Special","AGE_GROUP__LOW":4,"AGE_GROUP__HIGH":18,"ADDRESS":"Turney Rd","POSTCODE":"SE21 8LX","UPRN":100023252921,"EASTING":532284,"NORTHING":173718}},{"type":"Feature","id":55,"geometry":{"type":"Point","coordinates":[-0.11590708844286127,51.474656906036671]},"properties":{"OBJECTID":55,"ESTABLISHMENT_NAME":"Van Gogh Primary","TYPE":"Academy Converter","TYPE_GROUP":"Academy","PHASE":"Primary","AGE_GROUP__LOW":3,"AGE_GROUP__HIGH":11,"ADDRESS":"Hackford Rd","POSTCODE":"SW9 0RD","UPRN":100023385680,"EASTING":530946,"NORTHING":176760}},{"type":"Feature","id":56,"geometry":{"type":"Point","coordinates":[-0.111551022730833,51.491574045546308]},"properties":{"OBJECTID":56,"ESTABLISHMENT_NAME":"Vanguard School","TYPE":"Free school","TYPE_GROUP":"Academy","PHASE":"Special","AGE_GROUP__LOW":11,"AGE_GROUP__HIGH":19,"ADDRESS":"Lollard Street, Kennington Road","POSTCODE":"SE11 6QH","UPRN":10094956652,"EASTING":531200,"NORTHING":178649}},{"type":"Feature","id":57,"geometry":{"type":"Point","coordinates":[-0.11768141503064419,51.488929821607591]},"properties":{"OBJECTID":57,"ESTABLISHMENT_NAME":"Vauxhall Primary School","TYPE":"Foundation","TYPE_GROUP":"Maintained","PHASE":"Primary","AGE_GROUP__LOW":3,"AGE_GROUP__HIGH":11,"ADDRESS":"Vauxhall St.","POSTCODE":"SE11 5LG","UPRN":100023230109,"EASTING":530782,"NORTHING":178344}},{"type":"Feature","id":58,"geometry":{"type":"Point","coordinates":[-0.11336881552026033,51.493950407508706]},"properties":{"OBJECTID":58,"ESTABLISHMENT_NAME":"Walnut Tree Walk Primary School","TYPE":"Community","TYPE_GROUP":"Maintained","PHASE":"Primary","AGE_GROUP__LOW":3,"AGE_GROUP__HIGH":11,"ADDRESS":"Walnut Tree Walk","POSTCODE":"SE11 6DS","UPRN":100023231301,"EASTING":531067,"NORTHING":178910}},{"type":"Feature","id":59,"geometry":{"type":"Point","coordinates":[-0.13567606398223558,51.412634886787409]},"properties":{"OBJECTID":59,"ESTABLISHMENT_NAME":"Woodmansterne School","TYPE":"Community","TYPE_GROUP":"Maintained","PHASE":"All-through","AGE_GROUP__LOW":3,"AGE_GROUP__HIGH":18,"ADDRESS":"Stockport Rd","POSTCODE":"SW16 5XE","UPRN":100023320010,"EASTING":529748.63,"NORTHING":169827.98000000001}},{"type":"Feature","id":60,"geometry":{"type":"Point","coordinates":[-0.12545610542503335,51.481293659096067]},"properties":{"OBJECTID":60,"ESTABLISHMENT_NAME":"Wyvil Primary School","TYPE":"Foundation","TYPE_GROUP":"Maintained","PHASE":"Primary","AGE_GROUP__LOW":3,"AGE_GROUP__HIGH":11,"ADDRESS":"Wyvil Rd","POSTCODE":"SW8 2TJ","UPRN":100023384015,"EASTING":530264,"NORTHING":177481}},{"type":"Feature","id":61,"geometry":{"type":"Point","coordinates":[-0.12721135144676776,51.472876240157348]},"properties":{"OBJECTID":61,"ESTABLISHMENT_NAME":"Allen Edwards Primary School","TYPE":"Community","TYPE_GROUP":"Maintained","PHASE":"Primary","AGE_GROUP__LOW":3,"AGE_GROUP__HIGH":11,"ADDRESS":"Studley Rd Larkhall Lane","POSTCODE":"SW4 6RP","UPRN":200000470294,"EASTING":530166.05000000005,"NORTHING":176541.85000000001}},{"type":"Feature","id":62,"geometry":{"type":"Point","coordinates":[-0.10993682435077264,51.49159300591775]},"properties":{"OBJECTID":62,"ESTABLISHMENT_NAME":"Archbishop Sumner Church of England Primary School","TYPE":"Voluntary Aided","TYPE_GROUP":"Maintained","PHASE":"Primary","AGE_GROUP__LOW":3,"AGE_GROUP__HIGH":11,"ADDRESS":"Reedworth St.","POSTCODE":"SE11 4PH","UPRN":200000477868,"EASTING":531312,"NORTHING":178654}},{"type":"Feature","id":63,"geometry":{"type":"Point","coordinates":[-0.11600213577014294,51.482491057065651]},"properties":{"OBJECTID":63,"ESTABLISHMENT_NAME":"Archbishop Tenison's School","TYPE":"Academy sponsor","TYPE_GROUP":"Academy","PHASE":"Secondary","AGE_GROUP__LOW":11,"AGE_GROUP__HIGH":16,"ADDRESS":"55 Kennington Oval","POSTCODE":"SE11 5SR","UPRN":200000468068,"EASTING":530917,"NORTHING":177631}},{"type":"Feature","id":64,"geometry":{"type":"Point","coordinates":[-0.10424687949305753,51.460665008684884]},"properties":{"OBJECTID":64,"ESTABLISHMENT_NAME":"Ark Evelyn Grace Academy","TYPE":"Academy sponsor","TYPE_GROUP":"Academy","PHASE":"Secondary","AGE_GROUP__LOW":11,"AGE_GROUP__HIGH":18,"ADDRESS":"255 Shakespeare Road","POSTCODE":"SE24 OQN","UPRN":10023851851,"EASTING":531796,"NORTHING":175225}},{"type":"Feature","id":65,"geometry":{"type":"Point","coordinates":[-0.1149127531619054,51.482014924204698]},"properties":{"OBJECTID":65,"ESTABLISHMENT_NAME":"Ashmole Primary School","TYPE":"Community","TYPE_GROUP":"Maintained","PHASE":"Primary","AGE_GROUP__LOW":3,"AGE_GROUP__HIGH":11,"ADDRESS":"Ashmole St.","POSTCODE":"SW8 1NT","UPRN":100023570718,"EASTING":530994,"NORTHING":177580}},{"type":"Feature","id":66,"geometry":{"type":"Point","coordinates":[-0.11871319194042854,51.424971860858648]},"properties":{"OBJECTID":66,"ESTABLISHMENT_NAME":"Bishop Thomas Grant Catholic Secondary School","TYPE":"Voluntary Aided","TYPE_GROUP":"Maintained","PHASE":"Secondary","AGE_GROUP__LOW":11,"AGE_GROUP__HIGH":19,"ADDRESS":"Bell Trees Grove","POSTCODE":"SW16 2HY","UPRN":200000454981,"EASTING":530893,"NORTHING":171230}},{"type":"Feature","id":67,"geometry":{"type":"Point","coordinates":[-0.13964923699276305,51.453138772016509]},"properties":{"OBJECTID":67,"ESTABLISHMENT_NAME":"Bonneville Primary School","TYPE":"Community","TYPE_GROUP":"Maintained","PHASE":"Primary","AGE_GROUP__LOW":3,"AGE_GROUP__HIGH":11,"ADDRESS":"Bonneville Gardens","POSTCODE":"SW4 9LB","UPRN":100023365455,"EASTING":529358,"NORTHING":174325}},{"type":"Feature","id":68,"geometry":{"type":"Point","coordinates":[-0.10812351590631802,51.476231204454791]},"properties":{"OBJECTID":68,"ESTABLISHMENT_NAME":"Christ Church Primary SW9","TYPE":"Voluntary Aided","TYPE_GROUP":"Maintained","PHASE":"Primary","AGE_GROUP__LOW":3,"AGE_GROUP__HIGH":11,"ADDRESS":"Cancell Rd ","POSTCODE":"SW9 6HN ","UPRN":100023571219,"EASTING":531482,"NORTHING":176949}},{"type":"Feature","id":69,"geometry":{"type":"Point","coordinates":[-0.12149840354156734,51.444746727813992]},"properties":{"OBJECTID":69,"ESTABLISHMENT_NAME":"Christ Church, Streatham Church of England Primary School","TYPE":"Academy Converter","TYPE_GROUP":"Academy","PHASE":"Primary","AGE_GROUP__LOW":5,"AGE_GROUP__HIGH":11,"ADDRESS":"Cotherstone Rd","POSTCODE":"SW2 3NF","UPRN":200000458065,"EASTING":530643,"NORTHING":173424}},{"type":"Feature","id":70,"geometry":{"type":"Point","coordinates":[-0.11296080780166495,51.442068708331604]},"properties":{"OBJECTID":70,"ESTABLISHMENT_NAME":"City Heights E-ACT Academy","TYPE":"Academy Sponsor","TYPE_GROUP":"Academy","PHASE":"Secondary","AGE_GROUP__LOW":11,"AGE_GROUP__HIGH":18,"ADDRESS":"33 Abbots Park\n","POSTCODE":"SW2 3PW","UPRN":10091118097,"EASTING":531243.94999999995,"NORTHING":173141.45999999999}},{"type":"Feature","id":71,"geometry":{"type":"Point","coordinates":[-0.13753554224788339,51.464409060595521]},"properties":{"OBJECTID":71,"ESTABLISHMENT_NAME":"Clapham Manor Primary School","TYPE":"Community","TYPE_GROUP":"Maintained","PHASE":"Primary","AGE_GROUP__LOW":3,"AGE_GROUP__HIGH":11,"ADDRESS":"Belmont Rd","POSTCODE":"SW4 0BZ","UPRN":200000454983,"EASTING":529473,"NORTHING":175582}},{"type":"Feature","id":72,"geometry":{"type":"Point","coordinates":[-0.12012222932860746,51.45618151690288]},"properties":{"OBJECTID":72,"ESTABLISHMENT_NAME":"Corpus Christi Catholic Primary School","TYPE":"Academy Converter","TYPE_GROUP":"Academy","PHASE":"Primary","AGE_GROUP__LOW":3,"AGE_GROUP__HIGH":11,"ADDRESS":"Trent Rd","POSTCODE":"SW2 5BL","UPRN":200000484585,"EASTING":530706,"NORTHING":174698}},{"type":"Feature","id":73,"geometry":{"type":"Point","coordinates":[-0.10899550567770171,51.423430483934084]},"properties":{"OBJECTID":73,"ESTABLISHMENT_NAME":"Crown Lane Primary School","TYPE":"Community","TYPE_GROUP":"Maintained","PHASE":"Primary","AGE_GROUP__LOW":3,"AGE_GROUP__HIGH":11,"ADDRESS":"Crown Lane","POSTCODE":"SW16 3HX","UPRN":200000460906,"EASTING":531573,"NORTHING":171076}},{"type":"Feature","id":74,"geometry":{"type":"Point","coordinates":[-0.11606585242599768,51.500281308872253]},"properties":{"OBJECTID":74,"ESTABLISHMENT_NAME":"DLD College","TYPE":"Independent","TYPE_GROUP":"Independent","PHASE":"Secondary","AGE_GROUP__LOW":14,"AGE_GROUP__HIGH":19,"ADDRESS":"199 Westminster Bridge Road","POSTCODE":"SE1 7FX","UPRN":10091120491,"EASTING":530861.66000000003,"NORTHING":179609.17999999999}},{"type":"Feature","id":75,"geometry":{"type":"Point","coordinates":[-0.11974577899265364,51.433108901449415]},"properties":{"OBJECTID":75,"ESTABLISHMENT_NAME":"Dunraven School","TYPE":"Academy Converter","TYPE_GROUP":"Academy","PHASE":"All-through","AGE_GROUP__LOW":4,"AGE_GROUP__HIGH":18,"ADDRESS":"94-98 Leigham Court Rd","POSTCODE":"SW16 2QB","UPRN":100023572074,"EASTING":530798,"NORTHING":172133}},{"type":"Feature","id":76,"geometry":{"type":"Point","coordinates":[-0.11714504926835834,51.448076148137211]},"properties":{"OBJECTID":76,"ESTABLISHMENT_NAME":"Elm Court School","TYPE":"Community","TYPE_GROUP":"Maintained","PHASE":"Special","AGE_GROUP__LOW":9,"AGE_GROUP__HIGH":19,"ADDRESS":"Elm Park","POSTCODE":"SW2 2EF","UPRN":200000462853,"EASTING":530936,"NORTHING":173802}},{"type":"Feature","id":77,"geometry":{"type":"Point","coordinates":[-0.091952895834838969,51.432012056507695]},"properties":{"OBJECTID":77,"ESTABLISHMENT_NAME":"Elm Wood Primary School","TYPE":"Community","TYPE_GROUP":"Maintained","PHASE":"Primary","AGE_GROUP__LOW":3,"AGE_GROUP__HIGH":11,"ADDRESS":"Carnac St.","POSTCODE":"SE27 9RR","UPRN":100023266752,"EASTING":532733,"NORTHING":172061}},{"type":"Feature","id":78,"geometry":{"type":"Point","coordinates":[-0.10657049165300848,51.482788787997237]},"properties":{"OBJECTID":78,"ESTABLISHMENT_NAME":"Evolve Academy (Kennington Park)","TYPE":"Academy Converter","TYPE_GROUP":"Academy","PHASE":"AEP","AGE_GROUP__LOW":5,"AGE_GROUP__HIGH":16,"ADDRESS":"20 Kennington Park Gardens","POSTCODE":"SE11 4AX","UPRN":10090195483,"EASTING":531571,"NORTHING":177681}},{"type":"Feature","id":79,"geometry":{"type":"Point","coordinates":[-0.09793374321288803,51.428296341175511]},"properties":{"OBJECTID":79,"ESTABLISHMENT_NAME":"Evolve Academy (West Norwood)","TYPE":"Academy Converter","TYPE_GROUP":"Academy","PHASE":"AEP","AGE_GROUP__LOW":5,"AGE_GROUP__HIGH":16,"ADDRESS":"Gipsy Road","POSTCODE":"SE27 9NP ","UPRN":10090196375,"EASTING":532328,"NORTHING":171637}},{"type":"Feature","id":80,"geometry":{"type":"Point","coordinates":[-0.11362909110134396,51.442246195740523]},"properties":{"OBJECTID":80,"ESTABLISHMENT_NAME":"Fenstanton Primary School","TYPE":"Community","TYPE_GROUP":"Maintained","PHASE":"Primary","AGE_GROUP__LOW":3,"AGE_GROUP__HIGH":11,"ADDRESS":"Abbots Park","POSTCODE":"SW2 3PW","UPRN":200000452931,"EASTING":531197,"NORTHING":173160}},{"type":"Feature","id":81,"geometry":{"type":"Point","coordinates":[-0.13212719034801843,51.453001162999513]},"properties":{"OBJECTID":81,"ESTABLISHMENT_NAME":"Glenbrook Primary School","TYPE":"Community","TYPE_GROUP":"Maintained","PHASE":"Primary","AGE_GROUP__LOW":3,"AGE_GROUP__HIGH":11,"ADDRESS":"Clarence Avenue, Clapham Park","POSTCODE":"SW4 8LD","UPRN":100023571403,"EASTING":529881,"NORTHING":174323}},{"type":"Feature","id":82,"geometry":{"type":"Point","coordinates":[-0.14222418637769932,51.414510480415743]},"properties":{"OBJECTID":82,"ESTABLISHMENT_NAME":"Granton Primary School","TYPE":"Community","TYPE_GROUP":"Maintained","PHASE":"Primary","AGE_GROUP__LOW":3,"AGE_GROUP__HIGH":11,"ADDRESS":"Granton Rd","POSTCODE":"SW16 5AN","UPRN":100023319950,"EASTING":529288,"NORTHING":170025}},{"type":"Feature","id":83,"geometry":{"type":"Point","coordinates":[-0.13290131409249245,51.453073750173324]},"properties":{"OBJECTID":83,"ESTABLISHMENT_NAME":"Harris Academy Clapham","TYPE":"Free School","TYPE_GROUP":"Academy","PHASE":"Secondary","AGE_GROUP__LOW":11,"AGE_GROUP__HIGH":16,"ADDRESS":"Clarence Avenue, Clapham Park","POSTCODE":null,"UPRN":10094957625,"EASTING":529827.01000000001,"NORTHING":174329.70000000001}}]}